[{"name":"Stickam","category_code":"games_video","total_money_raised":"$0","offices":{"description":"","address1":"1975 pads rd","address2":"Suite 3000","zip_code":"90071","city":"Los Angeles","state_code":"CA","country_code":"USA","latitude":34.051409,"longitude":-118.254558},"category":"AllTot","office":{"type":"Point","coordinates":[-118.254558,34.051409]},"clean_state":"success","latitude":34.051409,"longitude":-118.254558},{"name":"Revver","category_code":"games_video","total_money_raised":"$12.7M","offices":{"description":null,"address1":"","address2":"","zip_code":"","city":"Los Angeles","state_code":"CA","country_code":"USA","latitude":34.052187,"longitude":-118.243425},"category":"AllTot","office":{"type":"Point","coordinates":[-118.243425,34.052187]},"clean_state":"success","latitude":34.052187,"longitude":-118.243425},{"name":"Orgoo","category_code":"web","total_money_raised":"$0","offices":{"description":"","address1":"11022 Santa Monica Blvd.","address2":"","zip_code":"90025","city":"Los Angeles","state_code":"CA","country_code":"USA","latitude":34.0481711,"longitude":-118.4419012},"category":"AllTot","office":{"type":"Point","coordinates":[-118.4419012,34.0481711]},"clean_state":"success","latitude":34.0481711,"longitude":-118.4419012},{"name":"mEgo","category_code":"web","total_money_raised":"$7.35M","offices":{"description":null,"address1":"1278 South Beverly Glen","address2":null,"zip_code":"90024","city":"Los Angeles","state_code":"CA","country_code":"USA","latitude":34.064491,"longitude":-118.42749},"category":"AllTot","office":{"type":"Point","coordinates":[-118.42749,34.064491]},"clean_state":"success","latitude":34.064491,"longitude":-118.42749},{"name":"Authenticlick","category_code":"search","total_money_raised":"$5M","offices":{"description":null,"address1":"5757 Wilshire Blvd.","address2":"Penthouse One","zip_code":"90036","city":"Los Angeles","state_code":"CA","country_code":"USA","latitude":34.062504,"longitude":-118.354605},"category":"AllTot","office":{"type":"Point","coordinates":[-118.354605,34.062504]},"clean_state":"success","latitude":34.062504,"longitude":-118.354605},{"name":"FanPrice","category_code":"games_video","total_money_raised":"$0","offices":{"description":"FanPrice Corporate Office","address1":"11693 San Vicente Blvd","address2":"#425","zip_code":"90049","city":"Los Angeles","state_code":"CA","country_code":"USA","latitude":38.233786,"longitude":-122.636071},"category":"AllTot","office":{"type":"Point","coordinates":[-122.636071,38.233786]},"clean_state":"success","latitude":38.233786,"longitude":-122.636071},{"name":"Mybandstock","category_code":"games_video","total_money_raised":"$0","offices":{"description":"Mybandstock.com","address1":"3475 Ben Lomond Place","address2":"","zip_code":"90027","city":"Los Angeles","state_code":"CA","country_code":"USA","latitude":42.2802675,"longitude":-83.7420579},"category":"AllTot","office":{"type":"Point","coordinates":[-83.7420579,42.2802675]},"clean_state":"success","latitude":42.2802675,"longitude":-83.7420579},{"name":"kidthing","category_code":"ecommerce","total_money_raised":"$3M","offices":{"description":"Los Angeles Office","address1":"701 E. 3rd Street","address2":"Suite 315","zip_code":"90013","city":"Los Angeles","state_code":"CA","country_code":"USA","latitude":34.045845,"longitude":-118.237811},"category":"AllTot","office":{"type":"Point","coordinates":[-118.237811,34.045845]},"clean_state":"success","latitude":34.045845,"longitude":-118.237811},{"name":"KlickSports","category_code":"mobile","total_money_raised":"$1.2M","offices":{"description":"Headquarters","address1":"100 Sawtelle Boulevard","address2":"","zip_code":"90025","city":"Los Angeles","state_code":"CA","country_code":"USA","latitude":34.0431973,"longitude":-118.445584},"category":"AllTot","office":{"type":"Point","coordinates":[-118.445584,34.0431973]},"clean_state":"success","latitude":34.0431973,"longitude":-118.445584}]