[{"name":"Social Gaming Network","category_code":"games_video","offices":{"description":"HQ Los Angeles","address1":"9570 W. Pico Blvd 3rd Floor","address2":"","zip_code":"90035","city":"Los Angeles","state_code":"CA","country_code":"USA","latitude":37.446823,"longitude":-122.161523},"category":"SmallGameRecent","office":{"type":"Point","coordinates":[-122.161523,37.446823]},"clean_state":"success","latitude":37.446823,"longitude":-122.161523,"total_money_raised":"$17.1M","total_money_raised_USD":17100000000.0,"state":"CA"},{"name":"Social Gaming Network","category_code":"games_video","offices":{"description":"","address1":"9606 S. Santa Monica Blvd","address2":"2nd Floor","zip_code":"90210","city":"Beverly Hills","state_code":"CA","country_code":"USA","latitude":34.0698494,"longitude":-118.4054182},"category":"SmallGameRecent","office":{"type":"Point","coordinates":[-118.4054182,34.0698494]},"clean_state":"success","latitude":34.0698494,"longitude":-118.4054182,"total_money_raised":"$17.1M","total_money_raised_USD":17100000000.0,"state":"CA"},{"name":"Navara","category_code":"software","offices":{"description":"Navara Headquarter","address1":"Planetenbaan 26","address2":"","zip_code":"3606 AK","city":"Maarssen","state_code":null,"country_code":"NLD","latitude":52.126616,"longitude":5.038078},"category":"SmallAllRecent","office":{"type":"Point","coordinates":[5.038078,52.126616]},"clean_state":"success","latitude":52.126616,"longitude":5.038078,"total_money_raised":"$0","total_money_raised_USD":0.0,"state":null},{"name":"Wamba","category_code":"web","offices":null,"category":"BigAllRecent","office":null,"clean_state":"No office","latitude":null,"longitude":null,"total_money_raised":"\u20ac3M","total_money_raised_USD":3000000000.0,"state":"unknown"},{"name":"Mobiluck","category_code":"mobile","offices":null,"category":"BigAllRecent","office":null,"clean_state":"No office","latitude":null,"longitude":null,"total_money_raised":"$0","total_money_raised_USD":0.0,"state":"unknown"},{"name":"Magento","category_code":"ecommerce","offices":{"description":null,"address1":"","address2":"","zip_code":"","city":"Los Angeles","state_code":"CA","country_code":"USA","latitude":34.052187,"longitude":-118.243425},"category":"BigAllRecent","office":{"type":"Point","coordinates":[-118.243425,34.052187]},"clean_state":"success","latitude":34.052187,"longitude":-118.243425,"total_money_raised":"$22.5M","total_money_raised_USD":22500000000.0,"state":"CA"},{"name":"Integrate","category_code":"software","offices":{"description":"Scottsdale HQ","address1":"4900 N. Scottsdale Road","address2":"Suite 4000","zip_code":"85251","city":"Scottsdale","state_code":"AZ","country_code":"USA","latitude":40.7481039,"longitude":-74.0353787},"category":"BigAllRecent","office":{"type":"Point","coordinates":[-74.0353787,40.7481039]},"clean_state":"success","latitude":40.7481039,"longitude":-74.0353787,"total_money_raised":"$34.8M","total_money_raised_USD":34800000000.0,"state":"AZ"},{"name":"Integrate","category_code":"software","offices":{"description":"Colorado Office","address1":"1821 Blake St.","address2":"STe 2A","zip_code":"80202","city":"Denver","state_code":"CO","country_code":"USA","latitude":null,"longitude":null},"category":"BigAllRecent","office":null,"clean_state":"Invalid lat and long","latitude":null,"longitude":null,"total_money_raised":"$34.8M","total_money_raised_USD":34800000000.0,"state":"CO"},{"name":"4shared","category_code":"network_hosting","offices":{"description":"","address1":"Graigmuir Chambers, Road Town","address2":"","zip_code":"","city":"Tortola","state_code":null,"country_code":"VGB","latitude":null,"longitude":null},"category":"BigAllRecent","office":null,"clean_state":"Invalid lat and long","latitude":null,"longitude":null,"total_money_raised":"$0","total_money_raised_USD":0.0,"state":null},{"name":"Babelgum","category_code":"games_video","offices":{"description":"","address1":"","address2":"","zip_code":"","city":"London","state_code":null,"country_code":"GBR","latitude":53.344104,"longitude":-6.267494},"category":"All","office":{"type":"Point","coordinates":[-6.267494,53.344104]},"clean_state":"success","latitude":53.344104,"longitude":-6.267494,"total_money_raised":"$13.2M","total_money_raised_USD":13200000000.0,"state":null},{"name":"Thoof","category_code":"web","offices":{"description":null,"address1":null,"address2":null,"zip_code":null,"city":"Austin","state_code":"TX","country_code":"USA","latitude":30.268735,"longitude":-97.745209},"category":"All","office":{"type":"Point","coordinates":[-97.745209,30.268735]},"clean_state":"success","latitude":30.268735,"longitude":-97.745209,"total_money_raised":"$1M","total_money_raised_USD":1000000000.0,"state":"TX"},{"name":"Wesabe","category_code":"web","offices":{"description":null,"address1":"400 Montgomery St, Suite 900","address2":null,"zip_code":"94104","city":"San Francisco","state_code":"CA","country_code":"USA","latitude":37.793148,"longitude":-122.402567},"category":"All","office":{"type":"Point","coordinates":[-122.402567,37.793148]},"clean_state":"success","latitude":37.793148,"longitude":-122.402567,"total_money_raised":"$4.7M","total_money_raised_USD":4700000000.0,"state":"CA"},{"name":"Stickam","category_code":"games_video","offices":{"description":"","address1":"1975 pads rd","address2":"Suite 3000","zip_code":"90071","city":"Los Angeles","state_code":"CA","country_code":"USA","latitude":34.051409,"longitude":-118.254558},"category":"All","office":{"type":"Point","coordinates":[-118.254558,34.051409]},"clean_state":"success","latitude":34.051409,"longitude":-118.254558,"total_money_raised":"$0","total_money_raised_USD":0.0,"state":"CA"},{"name":"AllPeers","category_code":"web","offices":{"description":null,"address1":null,"address2":null,"zip_code":null,"city":"Oxford","state_code":null,"country_code":"GBR","latitude":51.752276,"longitude":-1.255824},"category":"All","office":{"type":"Point","coordinates":[-1.255824,51.752276]},"clean_state":"success","latitude":51.752276,"longitude":-1.255824,"total_money_raised":"$0","total_money_raised_USD":0.0,"state":null},{"name":"AllofMP3","category_code":"games_video","offices":{"description":null,"address1":null,"address2":null,"zip_code":null,"city":"Moscow","state_code":null,"country_code":"RUS","latitude":55.755786,"longitude":37.617633},"category":"All","office":{"type":"Point","coordinates":[37.617633,55.755786]},"clean_state":"success","latitude":55.755786,"longitude":37.617633,"total_money_raised":"$0","total_money_raised_USD":0.0,"state":null},{"name":"SellABand","category_code":"games_video","offices":{"description":null,"address1":"Harderhook 22","address2":null,"zip_code":null,"city":"46395 Bocholt","state_code":null,"country_code":"DEU","latitude":51.808933,"longitude":6.553452},"category":"All","office":{"type":"Point","coordinates":[6.553452,51.808933]},"clean_state":"success","latitude":51.808933,"longitude":6.553452,"total_money_raised":"$5M","total_money_raised_USD":5000000000.0,"state":null},{"name":"Coghead","category_code":"web","offices":{"description":null,"address1":null,"address2":null,"zip_code":null,"city":"Redwood City","state_code":"CA","country_code":"USA","latitude":37.476479,"longitude":-122.221717},"category":"All","office":{"type":"Point","coordinates":[-122.221717,37.476479]},"clean_state":"success","latitude":37.476479,"longitude":-122.221717,"total_money_raised":"$11.2M","total_money_raised_USD":11200000000.0,"state":"CA"},{"name":"Sway","category_code":"advertising","offices":{"description":null,"address1":"8313 Greenway Blvd Suite 100","address2":"","zip_code":"53562","city":"Middleton","state_code":"WI","country_code":"USA","latitude":43.090756,"longitude":-89.522805},"category":"All","office":{"type":"Point","coordinates":[-89.522805,43.090756]},"clean_state":"success","latitude":43.090756,"longitude":-89.522805,"total_money_raised":"$2M","total_money_raised_USD":2000000000.0,"state":"WI"},{"name":"Hotelicopter","category_code":"web","offices":{"description":"","address1":"103 W. Main Street","address2":"","zip_code":"22902","city":"Charlottesville","state_code":"VA","country_code":"USA","latitude":38.030823,"longitude":-78.48158},"category":"All","office":{"type":"Point","coordinates":[-78.48158,38.030823]},"clean_state":"success","latitude":38.030823,"longitude":-78.48158,"total_money_raised":"$5M","total_money_raised_USD":5000000000.0,"state":"VA"},{"name":"coComment","category_code":"web","offices":{"description":null,"address1":null,"address2":null,"zip_code":null,"city":"Geneva","state_code":null,"country_code":"CHE","latitude":46.20381,"longitude":6.139959},"category":"All","office":{"type":"Point","coordinates":[6.139959,46.20381]},"clean_state":"success","latitude":46.20381,"longitude":6.139959,"total_money_raised":"$5.6M","total_money_raised_USD":5600000000.0,"state":null},{"name":"Ujogo","category_code":"web","offices":{"description":null,"address1":null,"address2":null,"zip_code":"94107","city":"San Francisco","state_code":"CA","country_code":"USA","latitude":37.76785,"longitude":-122.392861},"category":"All","office":{"type":"Point","coordinates":[-122.392861,37.76785]},"clean_state":"success","latitude":37.76785,"longitude":-122.392861,"total_money_raised":"$0","total_money_raised_USD":0.0,"state":"CA"},{"name":"PeerMe","category_code":"games_video","offices":{"description":null,"address1":"2115 Landings Drive","address2":null,"zip_code":"94043","city":"Mountain View","state_code":"CA","country_code":"USA","latitude":37.419819,"longitude":-122.090188},"category":"All","office":{"type":"Point","coordinates":[-122.090188,37.419819]},"clean_state":"success","latitude":37.419819,"longitude":-122.090188,"total_money_raised":"$5M","total_money_raised_USD":5000000000.0,"state":"CA"},{"name":"Tangler","category_code":"web","offices":{"description":null,"address1":"800 W. El Camino Real","address2":"Suite 180","zip_code":"94040","city":"Mountain View","state_code":"CA","country_code":"USA","latitude":37.386665,"longitude":-122.084171},"category":"All","office":{"type":"Point","coordinates":[-122.084171,37.386665]},"clean_state":"success","latitude":37.386665,"longitude":-122.084171,"total_money_raised":"$1.5M","total_money_raised_USD":1500000000.0,"state":"CA"},{"name":"TalkPlus","category_code":"web","offices":{"description":null,"address1":"1825 South Grant Street","address2":"Suite 400","zip_code":"94402","city":"San Mateo","state_code":"CA","country_code":"USA","latitude":37.553743,"longitude":-122.300246},"category":"All","office":{"type":"Point","coordinates":[-122.300246,37.553743]},"clean_state":"success","latitude":37.553743,"longitude":-122.300246,"total_money_raised":"$5.5M","total_money_raised_USD":5500000000.0,"state":"CA"},{"name":"PermissionTV","category_code":"games_video","offices":{"description":null,"address1":"1601 Trapelo Road, Suite 168","address2":null,"zip_code":"02451","city":"Waltham","state_code":"MA","country_code":"USA","latitude":42.417268,"longitude":-71.258466},"category":"All","office":{"type":"Point","coordinates":[-71.258466,42.417268]},"clean_state":"success","latitude":42.417268,"longitude":-71.258466,"total_money_raised":"$9M","total_money_raised_USD":9000000000.0,"state":"MA"},{"name":"Millsberry","category_code":"web","offices":{"description":"blake","address1":"1457","address2":"1327","zip_code":"3086448","city":"mem","state_code":"TN","country_code":"USA","latitude":37.09024,"longitude":-95.712891},"category":"All","office":{"type":"Point","coordinates":[-95.712891,37.09024]},"clean_state":"success","latitude":37.09024,"longitude":-95.712891,"total_money_raised":"$0","total_money_raised_USD":0.0,"state":"TN"},{"name":"Revver","category_code":"games_video","offices":{"description":null,"address1":"","address2":"","zip_code":"","city":"Los Angeles","state_code":"CA","country_code":"USA","latitude":34.052187,"longitude":-118.243425},"category":"All","office":{"type":"Point","coordinates":[-118.243425,34.052187]},"clean_state":"success","latitude":34.052187,"longitude":-118.243425,"total_money_raised":"$12.7M","total_money_raised_USD":12700000000.0,"state":"CA"},{"name":"Sampa","category_code":"web","offices":{"description":"","address1":"15359 NE 90th St","address2":"","zip_code":"98052","city":"Redmond","state_code":"WA","country_code":"USA","latitude":47.682233,"longitude":-122.135521},"category":"All","office":{"type":"Point","coordinates":[-122.135521,47.682233]},"clean_state":"success","latitude":47.682233,"longitude":-122.135521,"total_money_raised":"$1.31M","total_money_raised_USD":1310000000.0,"state":"WA"},{"name":"DanceJam","category_code":"games_video","offices":{"description":"","address1":"965 Mission Street","address2":"Suite 730","zip_code":"94103","city":"San Francisco","state_code":"CA","country_code":"USA","latitude":37.781557,"longitude":-122.407959},"category":"All","office":{"type":"Point","coordinates":[-122.407959,37.781557]},"clean_state":"success","latitude":37.781557,"longitude":-122.407959,"total_money_raised":"$4.5M","total_money_raised_USD":4500000000.0,"state":"CA"},{"name":"BitPass","category_code":"web","offices":{"description":null,"address1":"","address2":"","zip_code":"","city":"Mountain View","state_code":"CA","country_code":"USA","latitude":37.40047,"longitude":-122.072981},"category":"All","office":{"type":"Point","coordinates":[-122.072981,37.40047]},"clean_state":"success","latitude":37.40047,"longitude":-122.072981,"total_money_raised":"$13.3M","total_money_raised_USD":13300000000.0,"state":"CA"},{"name":"SpiralFrog","category_code":"games_video","offices":{"description":null,"address1":"95 Morton Street","address2":"Ground Floor","zip_code":"10014","city":"New York","state_code":"NY","country_code":"USA","latitude":37.09024,"longitude":-95.712891},"category":"All","office":{"type":"Point","coordinates":[-95.712891,37.09024]},"clean_state":"success","latitude":37.09024,"longitude":-95.712891,"total_money_raised":"$45M","total_money_raised_USD":45000000000.0,"state":"NY"},{"name":"RampedMedia","category_code":"web","offices":{"description":null,"address1":"1225 Mackay Place","address2":null,"zip_code":"63104","city":"Saint Louis","state_code":"MO","country_code":"USA","latitude":38.618874,"longitude":-90.216499},"category":"All","office":{"type":"Point","coordinates":[-90.216499,38.618874]},"clean_state":"success","latitude":38.618874,"longitude":-90.216499,"total_money_raised":"$0","total_money_raised_USD":0.0,"state":"MO"},{"name":"Nemedia","category_code":"advertising","offices":{"description":null,"address1":"Zona Franca de San Isidro, Multiuso #2.","address2":null,"zip_code":"2862","city":"Santo Domingo Este","state_code":null,"country_code":"DOM","latitude":null,"longitude":null},"category":"All","office":null,"clean_state":"Invalid lat and long","latitude":null,"longitude":null,"total_money_raised":"$2M","total_money_raised_USD":2000000000.0,"state":null},{"name":"ITema","category_code":"software","offices":{"description":null,"address1":null,"address2":null,"zip_code":"06320","city":"New London","state_code":"CT","country_code":"USA","latitude":41.345754,"longitude":-72.105722},"category":"All","office":{"type":"Point","coordinates":[-72.105722,41.345754]},"clean_state":"success","latitude":41.345754,"longitude":-72.105722,"total_money_raised":"$0","total_money_raised_USD":0.0,"state":"CT"},{"name":"Orgoo","category_code":"web","offices":{"description":"","address1":"11022 Santa Monica Blvd.","address2":"","zip_code":"90025","city":"Los Angeles","state_code":"CA","country_code":"USA","latitude":34.0481711,"longitude":-118.4419012},"category":"All","office":{"type":"Point","coordinates":[-118.4419012,34.0481711]},"clean_state":"success","latitude":34.0481711,"longitude":-118.4419012,"total_money_raised":"$0","total_money_raised_USD":0.0,"state":"CA"},{"name":"RatePoint","category_code":"software","offices":{"description":"","address1":"145 Rosemary St.","address2":"Suite D","zip_code":"02494","city":"Needham","state_code":"MA","country_code":"USA","latitude":42.296111,"longitude":-71.238524},"category":"All","office":{"type":"Point","coordinates":[-71.238524,42.296111]},"clean_state":"success","latitude":42.296111,"longitude":-71.238524,"total_money_raised":"$24.5M","total_money_raised_USD":24500000000.0,"state":"MA"},{"name":"MuseStorm","category_code":"web","offices":{"description":null,"address1":null,"address2":null,"zip_code":null,"city":"Sunnyvale","state_code":"CA","country_code":"USA","latitude":37.368594,"longitude":-122.034021},"category":"All","office":{"type":"Point","coordinates":[-122.034021,37.368594]},"clean_state":"success","latitude":37.368594,"longitude":-122.034021,"total_money_raised":"$1.5M","total_money_raised_USD":1500000000.0,"state":"CA"},{"name":"mEgo","category_code":"web","offices":{"description":null,"address1":"1278 South Beverly Glen","address2":null,"zip_code":"90024","city":"Los Angeles","state_code":"CA","country_code":"USA","latitude":34.064491,"longitude":-118.42749},"category":"All","office":{"type":"Point","coordinates":[-118.42749,34.064491]},"clean_state":"success","latitude":34.064491,"longitude":-118.42749,"total_money_raised":"$7.35M","total_money_raised_USD":7350000000.0,"state":"CA"},{"name":"BroadClip","category_code":"software","offices":{"description":null,"address1":"81 Tourmaline Ave","address2":null,"zip_code":"94550","city":"Livermore","state_code":"CA","country_code":"USA","latitude":37.661237,"longitude":-121.803572},"category":"All","office":{"type":"Point","coordinates":[-121.803572,37.661237]},"clean_state":"success","latitude":37.661237,"longitude":-121.803572,"total_money_raised":"$3.11M","total_money_raised_USD":3110000000.0,"state":"CA"},{"name":"Notemarks","category_code":"web","offices":{"description":null,"address1":"2400 Boston Street, Ste. 201","address2":null,"zip_code":"21224","city":"Baltimore","state_code":"MD","country_code":"USA","latitude":39.281734,"longitude":-76.581864},"category":"All","office":{"type":"Point","coordinates":[-76.581864,39.281734]},"clean_state":"success","latitude":39.281734,"longitude":-76.581864,"total_money_raised":"$0","total_money_raised_USD":0.0,"state":"MD"},{"name":"PlanHQ","category_code":"software","offices":{"description":null,"address1":null,"address2":null,"zip_code":null,"city":"Wellington","state_code":null,"country_code":"NZL","latitude":-41.28648,"longitude":174.776217},"category":"All","office":{"type":"Point","coordinates":[174.776217,-41.28648]},"clean_state":"success","latitude":-41.28648,"longitude":174.776217,"total_money_raised":"$250k","total_money_raised_USD":250000000000.0,"state":null},{"name":"Youlicit","category_code":"web","offices":{"description":null,"address1":"","address2":null,"zip_code":"10021","city":"","state_code":"NY","country_code":"USA","latitude":null,"longitude":null},"category":"All","office":null,"clean_state":"Invalid lat and long","latitude":null,"longitude":null,"total_money_raised":"$0","total_money_raised_USD":0.0,"state":"NY"},{"name":"Mixaloo","category_code":"games_video","offices":{"description":null,"address1":"35 Main Street, Suite 441","address2":null,"zip_code":"12601","city":"Poughkeepsie","state_code":"NY","country_code":"USA","latitude":41.705555,"longitude":-73.938638},"category":"All","office":{"type":"Point","coordinates":[-73.938638,41.705555]},"clean_state":"success","latitude":41.705555,"longitude":-73.938638,"total_money_raised":"$0","total_money_raised_USD":0.0,"state":"NY"},{"name":"Confabb","category_code":"web","offices":{"description":null,"address1":"","address2":"","zip_code":"94062","city":"","state_code":"CA","country_code":"USA","latitude":37.408826,"longitude":-122.29522},"category":"All","office":{"type":"Point","coordinates":[-122.29522,37.408826]},"clean_state":"success","latitude":37.408826,"longitude":-122.29522,"total_money_raised":"$200k","total_money_raised_USD":200000000000.0,"state":"CA"},{"name":"YowTRIP","category_code":"web","offices":{"description":"","address1":"","address2":"","zip_code":"","city":"Montr\u00e9al","state_code":null,"country_code":"CAN","latitude":null,"longitude":null},"category":"All","office":null,"clean_state":"Invalid lat and long","latitude":null,"longitude":null,"total_money_raised":"$0","total_money_raised_USD":0.0,"state":null},{"name":"Eurekster","category_code":"web","offices":{"description":null,"address1":"","address2":null,"zip_code":"94104","city":"","state_code":"CA","country_code":"USA","latitude":37.790992,"longitude":-122.40188},"category":"All","office":{"type":"Point","coordinates":[-122.40188,37.790992]},"clean_state":"success","latitude":37.790992,"longitude":-122.40188,"total_money_raised":"$6.85M","total_money_raised_USD":6850000000.0,"state":"CA"},{"name":"Upcoming","category_code":"web","offices":{"description":null,"address1":"","address2":"","zip_code":"","city":"Santa Clara","state_code":"CA","country_code":"USA","latitude":37.352309,"longitude":-121.968474},"category":"All","office":{"type":"Point","coordinates":[-121.968474,37.352309]},"clean_state":"success","latitude":37.352309,"longitude":-121.968474,"total_money_raised":"$0","total_money_raised_USD":0.0,"state":"CA"},{"name":"Faves","category_code":"web","offices":{"description":null,"address1":"811 First Avenue","address2":"Suite 480","zip_code":"98104","city":"Seattle","state_code":"WA","country_code":"USA","latitude":47.603327,"longitude":-122.334983},"category":"All","office":{"type":"Point","coordinates":[-122.334983,47.603327]},"clean_state":"success","latitude":47.603327,"longitude":-122.334983,"total_money_raised":"$1.5M","total_money_raised_USD":1500000000.0,"state":"WA"},{"name":"Minekey","category_code":"web","offices":{"description":null,"address1":"440 N. Wolfe Road","address2":null,"zip_code":"94085","city":"Sunnyvale","state_code":"CA","country_code":"USA","latitude":37.384239,"longitude":-122.012475},"category":"All","office":{"type":"Point","coordinates":[-122.012475,37.384239]},"clean_state":"success","latitude":37.384239,"longitude":-122.012475,"total_money_raised":"$3.6M","total_money_raised_USD":3600000000.0,"state":"CA"},{"name":"Skribit","category_code":"web","offices":{"description":"","address1":"","address2":"","zip_code":"30332","city":"Atlanta","state_code":"GA","country_code":"USA","latitude":33.7759,"longitude":-84.3927},"category":"All","office":{"type":"Point","coordinates":[-84.3927,33.7759]},"clean_state":"success","latitude":33.7759,"longitude":-84.3927,"total_money_raised":"$0","total_money_raised_USD":0.0,"state":"GA"},{"name":"xkoto","category_code":"software","offices":{"description":"HQ","address1":"275 Wyman Street,","address2":"Suite 130","zip_code":"02451","city":"Waltham","state_code":"MA","country_code":"USA","latitude":42.405685,"longitude":-71.255857},"category":"All","office":{"type":"Point","coordinates":[-71.255857,42.405685]},"clean_state":"success","latitude":42.405685,"longitude":-71.255857,"total_money_raised":"$11M","total_money_raised_USD":11000000000.0,"state":"MA"},{"name":"Adhysteria","category_code":"web","offices":{"description":"Head Office","address1":"310, Balarma, Bandra","address2":"Kurla Complex, Bandra East","zip_code":"400051","city":"Mumbai","state_code":null,"country_code":"IND","latitude":19.0627565,"longitude":72.8545019},"category":"All","office":{"type":"Point","coordinates":[72.8545019,19.0627565]},"clean_state":"success","latitude":19.0627565,"longitude":72.8545019,"total_money_raised":"$10k","total_money_raised_USD":10000000000.0,"state":null},{"name":"betNOW","category_code":"web","offices":{"description":null,"address1":"14 Garrick Street","address2":null,"zip_code":"WC2E 9SB","city":"London","state_code":null,"country_code":"GBR","latitude":51.511599,"longitude":-0.126389},"category":"All","office":{"type":"Point","coordinates":[-0.126389,51.511599]},"clean_state":"success","latitude":51.511599,"longitude":-0.126389,"total_money_raised":"$5M","total_money_raised_USD":5000000000.0,"state":null},{"name":"Dapper","category_code":"advertising","offices":{"description":"Corporate Headquarters","address1":"290 King Street","address2":"","zip_code":"94107","city":"San Francisco","state_code":"CA","country_code":"USA","latitude":37.7766184,"longitude":-122.3938931},"category":"All","office":{"type":"Point","coordinates":[-122.3938931,37.7766184]},"clean_state":"success","latitude":37.7766184,"longitude":-122.3938931,"total_money_raised":"$3M","total_money_raised_USD":3000000000.0,"state":"CA"},{"name":"RipCode","category_code":"software","offices":{"description":"","address1":"1130 East Arapaho Road","address2":"Suite 435","zip_code":"75081","city":"Richardson","state_code":"TX","country_code":"USA","latitude":32.959908,"longitude":-96.70737},"category":"All","office":{"type":"Point","coordinates":[-96.70737,32.959908]},"clean_state":"success","latitude":32.959908,"longitude":-96.70737,"total_money_raised":"$36.5M","total_money_raised_USD":36500000000.0,"state":"TX"},{"name":"RipCode","category_code":"software","offices":{"description":"","address1":"10814 Jollyville Road","address2":"Building IV, Suite 160","zip_code":"78759","city":"Austin","state_code":"TX","country_code":"USA","latitude":30.402252,"longitude":-97.748795},"category":"All","office":{"type":"Point","coordinates":[-97.748795,30.402252]},"clean_state":"success","latitude":30.402252,"longitude":-97.748795,"total_money_raised":"$36.5M","total_money_raised_USD":36500000000.0,"state":"TX"},{"name":"SimulScribe","category_code":"web","offices":{"description":null,"address1":"110 East 59th Street","address2":"","zip_code":"10022","city":"New York","state_code":"NY","country_code":"USA","latitude":40.762673,"longitude":-73.969296},"category":"All","office":{"type":"Point","coordinates":[-73.969296,40.762673]},"clean_state":"success","latitude":40.762673,"longitude":-73.969296,"total_money_raised":"$5.7M","total_money_raised_USD":5700000000.0,"state":"NY"},{"name":"ARPU","category_code":"advertising","offices":{"description":"","address1":"3333 Water Street NW","address2":"Suite 450","zip_code":"20007","city":"Washington","state_code":"DC","country_code":"USA","latitude":37.09024,"longitude":-95.712891},"category":"All","office":{"type":"Point","coordinates":[-95.712891,37.09024]},"clean_state":"success","latitude":37.09024,"longitude":-95.712891,"total_money_raised":"$15.6M","total_money_raised_USD":15600000000.0,"state":"DC"},{"name":"Journeys","category_code":"web","offices":{"description":null,"address1":"13 Noah Moses St.","address2":null,"zip_code":"67442","city":"Tel Aviv","state_code":null,"country_code":"ISR","latitude":null,"longitude":null},"category":"All","office":null,"clean_state":"Invalid lat and long","latitude":null,"longitude":null,"total_money_raised":"$600k","total_money_raised_USD":600000000000.0,"state":null},{"name":"yoonew","category_code":"web","offices":{"description":null,"address1":"1412 Broadway Suite 1822","address2":null,"zip_code":"10018","city":"New York","state_code":"NY","country_code":"USA","latitude":40.75362,"longitude":-73.986557},"category":"All","office":{"type":"Point","coordinates":[-73.986557,40.75362]},"clean_state":"success","latitude":40.75362,"longitude":-73.986557,"total_money_raised":"$4M","total_money_raised_USD":4000000000.0,"state":"NY"},{"name":"Mumboe","category_code":"software","offices":{"description":"Headquarters","address1":"2100 Kramer Lane","address2":"Suite 900","zip_code":"78758","city":"Austin","state_code":"TX","country_code":"USA","latitude":30.390071,"longitude":-97.711652},"category":"All","office":{"type":"Point","coordinates":[-97.711652,30.390071]},"clean_state":"success","latitude":30.390071,"longitude":-97.711652,"total_money_raised":"$4.5M","total_money_raised_USD":4500000000.0,"state":"TX"},{"name":"Bizak","category_code":"web","offices":{"description":null,"address1":"Brookline Village","address2":"","zip_code":"02445","city":"Brookline","state_code":"MA","country_code":"USA","latitude":42.33222,"longitude":-71.11829},"category":"All","office":{"type":"Point","coordinates":[-71.11829,42.33222]},"clean_state":"success","latitude":42.33222,"longitude":-71.11829,"total_money_raised":"$0","total_money_raised_USD":0.0,"state":"MA"},{"name":"TV Shack","category_code":"games_video","offices":{"description":"","address1":"Radmansgatan 42","address2":"","zip_code":"114 99","city":"Stockholm'''","state_code":null,"country_code":"SWE","latitude":59.3412176,"longitude":18.0614125},"category":"All","office":{"type":"Point","coordinates":[18.0614125,59.3412176]},"clean_state":"success","latitude":59.3412176,"longitude":18.0614125,"total_money_raised":"$0","total_money_raised_USD":0.0,"state":null},{"name":"Sharetivity","category_code":"web","offices":{"description":"","address1":"530 University Ave","address2":"","zip_code":"94303","city":"Palo Alto","state_code":"CA","country_code":"USA","latitude":37.550954,"longitude":-122.315396},"category":"All","office":{"type":"Point","coordinates":[-122.315396,37.550954]},"clean_state":"success","latitude":37.550954,"longitude":-122.315396,"total_money_raised":"$2M","total_money_raised_USD":2000000000.0,"state":"CA"},{"name":"What They Like","category_code":"web","offices":{"description":"","address1":"221 King Street","address2":"Suite 222","zip_code":"94107","city":"San Francisco","state_code":"CA","country_code":"USA","latitude":37.7776778,"longitude":-122.3921102},"category":"All","office":{"type":"Point","coordinates":[-122.3921102,37.7776778]},"clean_state":"success","latitude":37.7776778,"longitude":-122.3921102,"total_money_raised":"$990k","total_money_raised_USD":990000000000.0,"state":"CA"},{"name":"Qifang","category_code":"web","offices":{"description":null,"address1":"","address2":"","zip_code":"","city":"Shanghai","state_code":null,"country_code":"CHN","latitude":31.222222,"longitude":121.475},"category":"All","office":{"type":"Point","coordinates":[121.475,31.222222]},"clean_state":"success","latitude":31.222222,"longitude":121.475,"total_money_raised":"$200k","total_money_raised_USD":200000000000.0,"state":null},{"name":"EveryBlock","category_code":"web","offices":{"description":"","address1":"","address2":"","zip_code":"","city":"Chicago","state_code":"IL","country_code":"USA","latitude":null,"longitude":null},"category":"All","office":null,"clean_state":"Invalid lat and long","latitude":null,"longitude":null,"total_money_raised":"$0","total_money_raised_USD":0.0,"state":"IL"},{"name":"Smalltown","category_code":"web","offices":{"description":null,"address1":"210 S B Street","address2":"","zip_code":"94401","city":"San Mateo","state_code":"CA","country_code":"USA","latitude":37.566123,"longitude":-122.323045},"category":"All","office":{"type":"Point","coordinates":[-122.323045,37.566123]},"clean_state":"success","latitude":37.566123,"longitude":-122.323045,"total_money_raised":"$4M","total_money_raised_USD":4000000000.0,"state":"CA"},{"name":"QponDirect","category_code":"web","offices":{"description":null,"address1":"411 7th Avenue","address2":"Suite 575","zip_code":"15219","city":"Pittsburgh","state_code":"PA","country_code":"USA","latitude":40.442796,"longitude":-79.996384},"category":"All","office":{"type":"Point","coordinates":[-79.996384,40.442796]},"clean_state":"success","latitude":40.442796,"longitude":-79.996384,"total_money_raised":"$300k","total_money_raised_USD":300000000000.0,"state":"PA"},{"name":"YouCastr","category_code":"games_video","offices":{"description":"","address1":"18 Hurley Street","address2":"","zip_code":"02141","city":"Cambridge","state_code":"MA","country_code":"USA","latitude":42.36787,"longitude":-71.078258},"category":"All","office":{"type":"Point","coordinates":[-71.078258,42.36787]},"clean_state":"success","latitude":42.36787,"longitude":-71.078258,"total_money_raised":"$500k","total_money_raised_USD":500000000000.0,"state":"MA"},{"name":"JackPot Rewards","category_code":"web","offices":{"description":null,"address1":"275 Grove Street Suite 3-120","address2":"","zip_code":"02466","city":"Newton","state_code":"MA","country_code":"USA","latitude":42.337037,"longitude":-71.251748},"category":"All","office":{"type":"Point","coordinates":[-71.251748,42.337037]},"clean_state":"success","latitude":42.337037,"longitude":-71.251748,"total_money_raised":"$16.7M","total_money_raised_USD":16700000000.0,"state":"MA"},{"name":"World Reviewer","category_code":"games_video","offices":{"description":null,"address1":"129 Canalot Studios","address2":"222 Kensal Road","zip_code":"W8 5QH","city":"London","state_code":null,"country_code":"GBR","latitude":null,"longitude":null},"category":"All","office":null,"clean_state":"Invalid lat and long","latitude":null,"longitude":null,"total_money_raised":"$0","total_money_raised_USD":0.0,"state":null},{"name":"Swarmcast","category_code":"games_video","offices":{"description":null,"address1":"","address2":"","zip_code":"","city":"Minneapolis","state_code":"MN","country_code":"USA","latitude":44.977482,"longitude":-93.264351},"category":"All","office":{"type":"Point","coordinates":[-93.264351,44.977482]},"clean_state":"success","latitude":44.977482,"longitude":-93.264351,"total_money_raised":"$0","total_money_raised_USD":0.0,"state":"MN"},{"name":"Fifteen Reasons","category_code":"web","offices":{"description":"","address1":"4732A 17th St.","address2":"","zip_code":"94117","city":"San Francisco","state_code":"CA","country_code":"USA","latitude":41.948365,"longitude":-87.646307},"category":"All","office":{"type":"Point","coordinates":[-87.646307,41.948365]},"clean_state":"success","latitude":41.948365,"longitude":-87.646307,"total_money_raised":"$0","total_money_raised_USD":0.0,"state":"CA"},{"name":"I-stats","category_code":"web","offices":{"description":"","address1":"","address2":"","zip_code":"H3H1K4","city":"Montreal","state_code":null,"country_code":"CAN","latitude":40.048078,"longitude":-105.38018},"category":"All","office":{"type":"Point","coordinates":[-105.38018,40.048078]},"clean_state":"success","latitude":40.048078,"longitude":-105.38018,"total_money_raised":"$0","total_money_raised_USD":0.0,"state":null},{"name":"Akoha","category_code":"games_video","offices":{"description":null,"address1":"3981 boul. St. Laurent","address2":"Mezz 1","zip_code":"H2W 1Y5","city":"Montreal","state_code":null,"country_code":"CAN","latitude":45.516545,"longitude":-73.578477},"category":"All","office":{"type":"Point","coordinates":[-73.578477,45.516545]},"clean_state":"success","latitude":45.516545,"longitude":-73.578477,"total_money_raised":"$1.9M","total_money_raised_USD":1900000000.0,"state":null},{"name":"CityIN","category_code":"web","offices":{"description":null,"address1":"","address2":"","zip_code":"","city":"","state_code":null,"country_code":"CHN","latitude":35.86166,"longitude":104.195397},"category":"All","office":{"type":"Point","coordinates":[104.195397,35.86166]},"clean_state":"success","latitude":35.86166,"longitude":104.195397,"total_money_raised":"$0","total_money_raised_USD":0.0,"state":null},{"name":"Elastra","category_code":"software","offices":{"description":"HQ","address1":"160 Pacific Ave Mall","address2":"Suite 222","zip_code":"94111","city":"San Francisco","state_code":"CA","country_code":"USA","latitude":37.791137,"longitude":-122.391843},"category":"All","office":{"type":"Point","coordinates":[-122.391843,37.791137]},"clean_state":"success","latitude":37.791137,"longitude":-122.391843,"total_money_raised":"$14.6M","total_money_raised_USD":14600000000.0,"state":"CA"},{"name":"Socialmoth","category_code":"web","offices":{"description":"","address1":"857 cole st","address2":"","zip_code":"94117","city":"San Francisco","state_code":"CA","country_code":"USA","latitude":37.766,"longitude":-122.450011},"category":"All","office":{"type":"Point","coordinates":[-122.450011,37.766]},"clean_state":"success","latitude":37.766,"longitude":-122.450011,"total_money_raised":"$0","total_money_raised_USD":0.0,"state":"CA"},{"name":"WebVisible","category_code":"software","offices":{"description":"WebVisible, Inc.","address1":"5510 Lincoln Blvd.","address2":"","zip_code":"90094","city":"Playa Vista","state_code":"CA","country_code":"USA","latitude":null,"longitude":null},"category":"All","office":null,"clean_state":"Invalid lat and long","latitude":null,"longitude":null,"total_money_raised":"$37M","total_money_raised_USD":37000000000.0,"state":"CA"},{"name":"Zebtab","category_code":"games_video","offices":{"description":null,"address1":"Unit 11 Turnmills","address2":"63 Clerkenwell Rd","zip_code":"EC1M 5NP","city":"London","state_code":null,"country_code":"GBR","latitude":null,"longitude":null},"category":"All","office":null,"clean_state":"Invalid lat and long","latitude":null,"longitude":null,"total_money_raised":"$280k","total_money_raised_USD":280000000000.0,"state":null},{"name":"HelloTxt","category_code":"web","offices":{"description":"London Office","address1":"57-63 Scrutton Street","address2":"","zip_code":"EC2A 4PF","city":"London","state_code":null,"country_code":"GBR","latitude":51.5235368,"longitude":-0.0808503},"category":"All","office":{"type":"Point","coordinates":[-0.0808503,51.5235368]},"clean_state":"success","latitude":51.5235368,"longitude":-0.0808503,"total_money_raised":"$0","total_money_raised_USD":0.0,"state":null},{"name":"Clearwell Systems","category_code":"software","offices":{"description":"HQ","address1":"441 Logue Ave.","address2":"","zip_code":"94043","city":"Mountain View","state_code":"CA","country_code":"USA","latitude":37.398022,"longitude":-122.049143},"category":"All","office":{"type":"Point","coordinates":[-122.049143,37.398022]},"clean_state":"success","latitude":37.398022,"longitude":-122.049143,"total_money_raised":"$29M","total_money_raised_USD":29000000000.0,"state":"CA"},{"name":"YourTeamOnline","category_code":"games_video","offices":{"description":null,"address1":"42 Princess St.","address2":"","zip_code":"E2L 1K2","city":"Saint John","state_code":null,"country_code":"CAN","latitude":45.271401,"longitude":-66.061181},"category":"All","office":{"type":"Point","coordinates":[-66.061181,45.271401]},"clean_state":"success","latitude":45.271401,"longitude":-66.061181,"total_money_raised":"C$50k","total_money_raised_USD":0.0,"state":null},{"name":"Pressflip","category_code":"web","offices":{"description":null,"address1":"","address2":"","zip_code":"","city":"","state_code":"CA","country_code":"USA","latitude":37.269175,"longitude":-119.306607},"category":"All","office":{"type":"Point","coordinates":[-119.306607,37.269175]},"clean_state":"success","latitude":37.269175,"longitude":-119.306607,"total_money_raised":"$110k","total_money_raised_USD":110000000000.0,"state":"CA"},{"name":"Naubo","category_code":"web","offices":{"description":null,"address1":"","address2":"","zip_code":"","city":"","state_code":"DE","country_code":"USA","latitude":39.145022,"longitude":-75.386462},"category":"All","office":{"type":"Point","coordinates":[-75.386462,39.145022]},"clean_state":"success","latitude":39.145022,"longitude":-75.386462,"total_money_raised":"$200k","total_money_raised_USD":200000000000.0,"state":"DE"},{"name":"Netcipia","category_code":"web","offices":{"description":null,"address1":"555, Bryant Street #315","address2":"","zip_code":"94301","city":"Palo Alto","state_code":"CA","country_code":"USA","latitude":37.445326,"longitude":-122.160671},"category":"All","office":{"type":"Point","coordinates":[-122.160671,37.445326]},"clean_state":"success","latitude":37.445326,"longitude":-122.160671,"total_money_raised":"$200k","total_money_raised_USD":200000000000.0,"state":"CA"},{"name":"Jodange","category_code":"web","offices":{"description":null,"address1":"92 Main Street","address2":"Suite 208","zip_code":"10701","city":"Yonkers","state_code":"NY","country_code":"USA","latitude":40.934803,"longitude":-73.901839},"category":"All","office":{"type":"Point","coordinates":[-73.901839,40.934803]},"clean_state":"success","latitude":40.934803,"longitude":-73.901839,"total_money_raised":"$1.2M","total_money_raised_USD":1200000000.0,"state":"NY"},{"name":"PutPlace","category_code":"web","offices":{"description":"Head Office","address1":"The Digital Depot","address2":"4, Roe Lane","zip_code":"D8","city":"The Digital Hub, Dublin","state_code":null,"country_code":"IRL","latitude":null,"longitude":null},"category":"All","office":null,"clean_state":"Invalid lat and long","latitude":null,"longitude":null,"total_money_raised":"\u20ac1M","total_money_raised_USD":1000000000.0,"state":null},{"name":"Vivity Labs","category_code":"games_video","offices":{"description":"","address1":"21 Water Street","address2":"","zip_code":"V6B 1A1","city":"Vancouver","state_code":null,"country_code":"CAN","latitude":49.282249,"longitude":-123.108456},"category":"All","office":{"type":"Point","coordinates":[-123.108456,49.282249]},"clean_state":"success","latitude":49.282249,"longitude":-123.108456,"total_money_raised":"$1M","total_money_raised_USD":1000000000.0,"state":null},{"name":"Labmeeting","category_code":"web","offices":{"description":null,"address1":"","address2":"","zip_code":"","city":"","state_code":"CA","country_code":"USA","latitude":37.269175,"longitude":-119.306607},"category":"All","office":{"type":"Point","coordinates":[-119.306607,37.269175]},"clean_state":"success","latitude":37.269175,"longitude":-119.306607,"total_money_raised":"$500k","total_money_raised_USD":500000000000.0,"state":"CA"},{"name":"Twitlinks","category_code":"web","offices":{"description":"Sydney","address1":"PO BOX 290","address2":"","zip_code":"NSW 1655","city":"Manly","state_code":null,"country_code":"AUS","latitude":-33.329799,"longitude":151.505125},"category":"All","office":{"type":"Point","coordinates":[151.505125,-33.329799]},"clean_state":"success","latitude":-33.329799,"longitude":151.505125,"total_money_raised":"$0","total_money_raised_USD":0.0,"state":null},{"name":"Muxlim","category_code":"web","offices":{"description":"","address1":"Hiilikatu 3","address2":"","zip_code":"00180","city":"Helsinki","state_code":null,"country_code":"FIN","latitude":null,"longitude":null},"category":"All","office":null,"clean_state":"Invalid lat and long","latitude":null,"longitude":null,"total_money_raised":"$0","total_money_raised_USD":0.0,"state":null},{"name":"PrepChamps","category_code":"web","offices":{"description":"","address1":"","address2":"","zip_code":"","city":"","state_code":"GA","country_code":"USA","latitude":35.914702,"longitude":-78.902617},"category":"All","office":{"type":"Point","coordinates":[-78.902617,35.914702]},"clean_state":"success","latitude":35.914702,"longitude":-78.902617,"total_money_raised":"$1.2M","total_money_raised_USD":1200000000.0,"state":"GA"},{"name":"Aardvark","category_code":"web","offices":{"description":null,"address1":"","address2":"","zip_code":"94110","city":"San Francisco","state_code":"CA","country_code":"USA","latitude":37.748676,"longitude":-122.415813},"category":"All","office":{"type":"Point","coordinates":[-122.415813,37.748676]},"clean_state":"success","latitude":37.748676,"longitude":-122.415813,"total_money_raised":"$6M","total_money_raised_USD":6000000000.0,"state":"CA"},{"name":"Center'd","category_code":"web","offices":{"description":"","address1":"695 Oak Grove Ave.","address2":"Suite 100","zip_code":"94025","city":"Menlo Park","state_code":"CA","country_code":"USA","latitude":37.452992,"longitude":-122.185098},"category":"All","office":{"type":"Point","coordinates":[-122.185098,37.452992]},"clean_state":"success","latitude":37.452992,"longitude":-122.185098,"total_money_raised":"$10.4M","total_money_raised_USD":10400000000.0,"state":"CA"},{"name":"Skyrider","category_code":"software","offices":{"description":"HQ","address1":"201A Ravendale Drive","address2":"","zip_code":"94043","city":"Mountain View","state_code":"CA","country_code":"USA","latitude":null,"longitude":null},"category":"All","office":null,"clean_state":"Invalid lat and long","latitude":null,"longitude":null,"total_money_raised":"$17M","total_money_raised_USD":17000000000.0,"state":"CA"},{"name":"Your Survival","category_code":"web","offices":{"description":"","address1":"PO Box 731","address2":"","zip_code":"06890","city":"Southport","state_code":"CT","country_code":"USA","latitude":41.137996,"longitude":-73.34415},"category":"All","office":{"type":"Point","coordinates":[-73.34415,41.137996]},"clean_state":"success","latitude":41.137996,"longitude":-73.34415,"total_money_raised":"$425k","total_money_raised_USD":425000000000.0,"state":"CT"},{"name":"MediaRush","category_code":"web","offices":{"description":null,"address1":"","address2":"","zip_code":"","city":"","state_code":null,"country_code":"GBR","latitude":55.378051,"longitude":-3.435973},"category":"All","office":{"type":"Point","coordinates":[-3.435973,55.378051]},"clean_state":"success","latitude":55.378051,"longitude":-3.435973,"total_money_raised":"$0","total_money_raised_USD":0.0,"state":null},{"name":"EnterMedia","category_code":"advertising","offices":{"description":null,"address1":"Leningradsky Prospekt, 72, p. 4","address2":"","zip_code":"","city":"Moscow","state_code":null,"country_code":"RUS","latitude":null,"longitude":null},"category":"All","office":null,"clean_state":"Invalid lat and long","latitude":null,"longitude":null,"total_money_raised":"$1M","total_money_raised_USD":1000000000.0,"state":null},{"name":"Sxip Identity","category_code":"web","offices":{"description":null,"address1":"798 Beatty Street","address2":"","zip_code":"V6B 2M1","city":"Vancouver","state_code":null,"country_code":"CAN","latitude":49.277599,"longitude":-123.113946},"category":"All","office":{"type":"Point","coordinates":[-123.113946,49.277599]},"clean_state":"success","latitude":49.277599,"longitude":-123.113946,"total_money_raised":"$0","total_money_raised_USD":0.0,"state":null},{"name":"Zefanclub","category_code":"web","offices":{"description":"Zefanclub Paris","address1":"19 Rue Vivienne","address2":"","zip_code":"75002","city":"Paris","state_code":null,"country_code":"FRA","latitude":48.868478,"longitude":2.339843},"category":"All","office":{"type":"Point","coordinates":[2.339843,48.868478]},"clean_state":"success","latitude":48.868478,"longitude":2.339843,"total_money_raised":"$1M","total_money_raised_USD":1000000000.0,"state":null},{"name":"Zefanclub","category_code":"web","offices":{"description":"Zefanclub Istanbul","address1":"Nispetiye Mah. Aytar Cad.","address2":"Basaran Apartmani Etiler-Levent","zip_code":"","city":"Istanbul","state_code":null,"country_code":"TUR","latitude":null,"longitude":null},"category":"All","office":null,"clean_state":"Invalid lat and long","latitude":null,"longitude":null,"total_money_raised":"$1M","total_money_raised_USD":1000000000.0,"state":null},{"name":"1bib","category_code":"web","offices":{"description":null,"address1":"","address2":"","zip_code":"","city":"","state_code":null,"country_code":"CHN","latitude":35.86166,"longitude":104.195397},"category":"All","office":{"type":"Point","coordinates":[104.195397,35.86166]},"clean_state":"success","latitude":35.86166,"longitude":104.195397,"total_money_raised":"$0","total_money_raised_USD":0.0,"state":null},{"name":"Inertia Beverage Group","category_code":"software","offices":{"description":"HQ","address1":"1190 Airport Boulevard","address2":"Napa Valley Gateway Plaza, Suite 200","zip_code":"94558","city":"Napa","state_code":"CA","country_code":"USA","latitude":38.223032,"longitude":-122.261642},"category":"All","office":{"type":"Point","coordinates":[-122.261642,38.223032]},"clean_state":"success","latitude":38.223032,"longitude":-122.261642,"total_money_raised":"$25.5M","total_money_raised_USD":25500000000.0,"state":"CA"},{"name":"Muecs","category_code":"software","offices":{"description":"Hong Kong Office","address1":"Unit 208A 2\/F, Enterprise Place (Building 9),","address2":"No.5 Science Park West Ave.,","zip_code":"","city":"Shatin","state_code":null,"country_code":"HKG","latitude":null,"longitude":null},"category":"All","office":null,"clean_state":"Invalid lat and long","latitude":null,"longitude":null,"total_money_raised":"$101k","total_money_raised_USD":101000000000.0,"state":null},{"name":"Twiddict","category_code":"web","offices":null,"category":"All","office":null,"clean_state":"No office","latitude":null,"longitude":null,"total_money_raised":"$0","total_money_raised_USD":0.0,"state":"unknown"},{"name":"ECO-SAFE","category_code":"web","offices":null,"category":"All","office":null,"clean_state":"No office","latitude":null,"longitude":null,"total_money_raised":"$50k","total_money_raised_USD":50000000000.0,"state":"unknown"},{"name":"MovieSet","category_code":"web","offices":null,"category":"All","office":null,"clean_state":"No office","latitude":null,"longitude":null,"total_money_raised":"$6.5M","total_money_raised_USD":6500000000.0,"state":"unknown"},{"name":"Loud3r","category_code":"web","offices":{"description":"Loud3r HQ","address1":"87 E Green St","address2":"Suite 301","zip_code":"91105","city":"Pasadena","state_code":"CA","country_code":"USA","latitude":null,"longitude":null},"category":"All","office":null,"clean_state":"Invalid lat and long","latitude":null,"longitude":null,"total_money_raised":"$3.53M","total_money_raised_USD":3530000000.0,"state":"CA"},{"name":"MyTrainer","category_code":"games_video","offices":null,"category":"All","office":null,"clean_state":"No office","latitude":null,"longitude":null,"total_money_raised":"$0","total_money_raised_USD":0.0,"state":"unknown"},{"name":"Fortisphere","category_code":"software","offices":{"description":"HQ","address1":"4530 Walney Rd","address2":"Suite 203","zip_code":"22031","city":"Chantilly","state_code":"VA","country_code":"USA","latitude":38.87804,"longitude":-77.436151},"category":"All","office":{"type":"Point","coordinates":[-77.436151,38.87804]},"clean_state":"success","latitude":38.87804,"longitude":-77.436151,"total_money_raised":"$10M","total_money_raised_USD":10000000000.0,"state":"VA"},{"name":"Cyloop","category_code":"games_video","offices":{"description":"World Headquarters","address1":"555 Washington Ave, suite 340","address2":"","zip_code":"33137","city":"Miami","state_code":"FL","country_code":"USA","latitude":25.787252,"longitude":-80.13183},"category":"All","office":{"type":"Point","coordinates":[-80.13183,25.787252]},"clean_state":"success","latitude":25.787252,"longitude":-80.13183,"total_money_raised":"$0","total_money_raised_USD":0.0,"state":"FL"},{"name":"Cyloop","category_code":"games_video","offices":{"description":"Madrid Office","address1":"Avda. de Bruselas 38-B 4","address2":"Alcobendas","zip_code":"28108","city":"Madrid","state_code":null,"country_code":"ESP","latitude":40.5288449,"longitude":-3.6429907},"category":"All","office":{"type":"Point","coordinates":[-3.6429907,40.5288449]},"clean_state":"success","latitude":40.5288449,"longitude":-3.6429907,"total_money_raised":"$0","total_money_raised_USD":0.0,"state":null},{"name":"Cyloop","category_code":"games_video","offices":{"description":"CA Office","address1":"1960 East Grand Ave., suite 240","address2":"","zip_code":"90245","city":"El Segundo","state_code":"CA","country_code":"USA","latitude":33.918589,"longitude":-118.393719},"category":"All","office":{"type":"Point","coordinates":[-118.393719,33.918589]},"clean_state":"success","latitude":33.918589,"longitude":-118.393719,"total_money_raised":"$0","total_money_raised_USD":0.0,"state":"CA"},{"name":"Semanticator","category_code":"advertising","offices":{"description":"","address1":"","address2":"","zip_code":"","city":"Phoenix","state_code":"AZ","country_code":"USA","latitude":33.448263,"longitude":-112.073821},"category":"All","office":{"type":"Point","coordinates":[-112.073821,33.448263]},"clean_state":"success","latitude":33.448263,"longitude":-112.073821,"total_money_raised":"$0","total_money_raised_USD":0.0,"state":"AZ"},{"name":"Partnerbyte","category_code":"software","offices":{"description":"Istanbul Office","address1":"Ergenekon Cad. No:100","address2":"311 Pangalti \/ SISLI","zip_code":"34390","city":"Istanbul","state_code":null,"country_code":"TUR","latitude":41.052565,"longitude":28.984423},"category":"All","office":{"type":"Point","coordinates":[28.984423,41.052565]},"clean_state":"success","latitude":41.052565,"longitude":28.984423,"total_money_raised":"$100k","total_money_raised_USD":100000000000.0,"state":null},{"name":"KnowNow","category_code":"web","offices":null,"category":"All","office":null,"clean_state":"No office","latitude":null,"longitude":null,"total_money_raised":"$13M","total_money_raised_USD":13000000000.0,"state":"unknown"},{"name":"Kappa Prime","category_code":"web","offices":{"description":"London Office","address1":"Imperial College","address2":"South Kensington Campus","zip_code":"sw7 2az","city":"London","state_code":null,"country_code":"GBR","latitude":51.498067,"longitude":-0.175393},"category":"All","office":{"type":"Point","coordinates":[-0.175393,51.498067]},"clean_state":"success","latitude":51.498067,"longitude":-0.175393,"total_money_raised":"$0","total_money_raised_USD":0.0,"state":null},{"name":"Blue Lava Technologies","category_code":"software","offices":{"description":"Headquarters","address1":"55 Merchant St.","address2":"14th Floor","zip_code":"96813","city":"Honolulu","state_code":"HI","country_code":"USA","latitude":21.309419,"longitude":-157.86318},"category":"All","office":{"type":"Point","coordinates":[-157.86318,21.309419]},"clean_state":"success","latitude":21.309419,"longitude":-157.86318,"total_money_raised":"$6.01M","total_money_raised_USD":6010000000.0,"state":"HI"},{"name":"neoSaej","category_code":"web","offices":{"description":"","address1":"77 South Bedford Street","address2":"Suite 450","zip_code":"01803","city":"Burlington","state_code":"MA","country_code":"USA","latitude":42.485691,"longitude":-71.19862},"category":"All","office":{"type":"Point","coordinates":[-71.19862,42.485691]},"clean_state":"success","latitude":42.485691,"longitude":-71.19862,"total_money_raised":"$13.1M","total_money_raised_USD":13100000000.0,"state":"MA"},{"name":"ByteShield","category_code":"software","offices":{"description":"Corporate Headquarters","address1":"3240 Lyon Street","address2":"","zip_code":"94123-1857","city":"San Francisco","state_code":"CA","country_code":"USA","latitude":37.800948,"longitude":-122.447292},"category":"All","office":{"type":"Point","coordinates":[-122.447292,37.800948]},"clean_state":"success","latitude":37.800948,"longitude":-122.447292,"total_money_raised":"$0","total_money_raised_USD":0.0,"state":"CA"},{"name":"Medpedia","category_code":"web","offices":null,"category":"All","office":null,"clean_state":"No office","latitude":null,"longitude":null,"total_money_raised":"$0","total_money_raised_USD":0.0,"state":"unknown"},{"name":"ArtistForce","category_code":"software","offices":{"description":"Headquarters","address1":"1645 Vine Street","address2":"","zip_code":"90028","city":"Hollywood","state_code":"CA","country_code":"USA","latitude":34.100974,"longitude":-118.326672},"category":"All","office":{"type":"Point","coordinates":[-118.326672,34.100974]},"clean_state":"success","latitude":34.100974,"longitude":-118.326672,"total_money_raised":"$0","total_money_raised_USD":0.0,"state":"CA"},{"name":"ArtistForce","category_code":"software","offices":{"description":"New York Office","address1":"260 Water Street","address2":"","zip_code":"11201","city":"Brooklyn","state_code":"NY","country_code":"USA","latitude":40.70299,"longitude":-73.983471},"category":"All","office":{"type":"Point","coordinates":[-73.983471,40.70299]},"clean_state":"success","latitude":40.70299,"longitude":-73.983471,"total_money_raised":"$0","total_money_raised_USD":0.0,"state":"NY"},{"name":"ArtistForce","category_code":"software","offices":{"description":"Austin Office","address1":"100 Congress Avenue","address2":"","zip_code":"78701","city":"Austin","state_code":"TX","country_code":"USA","latitude":30.264043,"longitude":-97.744762},"category":"All","office":{"type":"Point","coordinates":[-97.744762,30.264043]},"clean_state":"success","latitude":30.264043,"longitude":-97.744762,"total_money_raised":"$0","total_money_raised_USD":0.0,"state":"TX"},{"name":"Jamglue","category_code":"games_video","offices":null,"category":"All","office":null,"clean_state":"No office","latitude":null,"longitude":null,"total_money_raised":"$0","total_money_raised_USD":0.0,"state":"unknown"},{"name":"Lexy","category_code":"games_video","offices":{"description":"Corporate Headquarters","address1":"589 Howard Street","address2":"Fifth Floor","zip_code":"94105","city":"San Francisco","state_code":"CA","country_code":"USA","latitude":37.786906,"longitude":-122.397672},"category":"All","office":{"type":"Point","coordinates":[-122.397672,37.786906]},"clean_state":"success","latitude":37.786906,"longitude":-122.397672,"total_money_raised":"$1.71M","total_money_raised_USD":1710000000.0,"state":"CA"},{"name":"Code71","category_code":"software","offices":{"description":"Corporate Office","address1":"4732 Sadler Green Place","address2":"","zip_code":"23060","city":"Glen Allen","state_code":"VA","country_code":"USA","latitude":37.665173,"longitude":-77.587267},"category":"All","office":{"type":"Point","coordinates":[-77.587267,37.665173]},"clean_state":"success","latitude":37.665173,"longitude":-77.587267,"total_money_raised":"$1M","total_money_raised_USD":1000000000.0,"state":"VA"},{"name":"Code71","category_code":"software","offices":{"description":"Dhaka Office","address1":"House#39\/A (6th floor), Road#11","address2":"","zip_code":"1205","city":"Dhanmondi","state_code":null,"country_code":"BGD","latitude":23.743156,"longitude":90.379976},"category":"All","office":{"type":"Point","coordinates":[90.379976,23.743156]},"clean_state":"success","latitude":23.743156,"longitude":90.379976,"total_money_raised":"$1M","total_money_raised_USD":1000000000.0,"state":null},{"name":"Enikos","category_code":"advertising","offices":{"description":"Sydney Office","address1":"18 Bulletin place","address2":"","zip_code":"2000","city":"Sydney","state_code":null,"country_code":"AUS","latitude":-33.8627,"longitude":151.209705},"category":"All","office":{"type":"Point","coordinates":[151.209705,-33.8627]},"clean_state":"success","latitude":-33.8627,"longitude":151.209705,"total_money_raised":"$1.1M","total_money_raised_USD":1100000000.0,"state":null},{"name":"RODECO ICT Services","category_code":"web","offices":{"description":"Netherlands office","address1":"Pastoor Daalmansplantsoen 43a","address2":"","zip_code":"2771 SH","city":"Boskoop","state_code":null,"country_code":"NLD","latitude":52.068548,"longitude":4.639776},"category":"All","office":{"type":"Point","coordinates":[4.639776,52.068548]},"clean_state":"success","latitude":52.068548,"longitude":4.639776,"total_money_raised":"\u20ac600k","total_money_raised_USD":600000000000.0,"state":null},{"name":"RODECO ICT Services","category_code":"web","offices":{"description":"German office","address1":"Niddastrasse 64","address2":"","zip_code":"DE-60329","city":"Frankfurt am Main","state_code":null,"country_code":"DEU","latitude":50.109155,"longitude":8.662848},"category":"All","office":{"type":"Point","coordinates":[8.662848,50.109155]},"clean_state":"success","latitude":50.109155,"longitude":8.662848,"total_money_raised":"\u20ac600k","total_money_raised_USD":600000000000.0,"state":null},{"name":"RODECO ICT Services","category_code":"web","offices":{"description":"Romanian office","address1":"Ileana Cosanzeana 11","address2":"App 15","zip_code":"","city":"Bucharest","state_code":null,"country_code":"ROM","latitude":null,"longitude":null},"category":"All","office":null,"clean_state":"Invalid lat and long","latitude":null,"longitude":null,"total_money_raised":"\u20ac600k","total_money_raised_USD":600000000000.0,"state":null},{"name":"Six Degrees Games","category_code":"games_video","offices":{"description":"HQ","address1":"4223 Glencoe Boulevard","address2":"Suite C215","zip_code":"90292","city":"Marina del Rey","state_code":"CA","country_code":"USA","latitude":null,"longitude":null},"category":"All","office":null,"clean_state":"Invalid lat and long","latitude":null,"longitude":null,"total_money_raised":"$18M","total_money_raised_USD":18000000000.0,"state":"CA"},{"name":"Local Marketers","category_code":"web","offices":{"description":"","address1":"419 Occidental Avenue South","address2":"Suite 608","zip_code":"98104","city":"Seattle","state_code":"WA","country_code":"USA","latitude":47.5989681,"longitude":-122.3329036},"category":"All","office":{"type":"Point","coordinates":[-122.3329036,47.5989681]},"clean_state":"success","latitude":47.5989681,"longitude":-122.3329036,"total_money_raised":"$4.1M","total_money_raised_USD":4099999999.9999995232,"state":"WA"},{"name":"LeisureLogix","category_code":"software","offices":{"description":"Headquarters","address1":"13911 W. Hillsborough","address2":"Suite 312","zip_code":"33635","city":"Tampa","state_code":"FL","country_code":"USA","latitude":28.032975,"longitude":-82.64611},"category":"All","office":{"type":"Point","coordinates":[-82.64611,28.032975]},"clean_state":"success","latitude":28.032975,"longitude":-82.64611,"total_money_raised":"$5.9M","total_money_raised_USD":5900000000.0,"state":"FL"},{"name":"Heekya","category_code":"web","offices":null,"category":"All","office":null,"clean_state":"No office","latitude":null,"longitude":null,"total_money_raised":"$0","total_money_raised_USD":0.0,"state":"unknown"},{"name":"ididwork","category_code":"web","offices":null,"category":"All","office":null,"clean_state":"No office","latitude":null,"longitude":null,"total_money_raised":"$0","total_money_raised_USD":0.0,"state":"unknown"},{"name":"MyFrontSteps","category_code":"web","offices":{"description":"Corporate Headquarters","address1":"55 -33rd St","address2":"","zip_code":"S7K 0R8","city":"Saskatoon","state_code":null,"country_code":"CAN","latitude":52.143886,"longitude":-106.6634565},"category":"All","office":{"type":"Point","coordinates":[-106.6634565,52.143886]},"clean_state":"success","latitude":52.143886,"longitude":-106.6634565,"total_money_raised":"$3M","total_money_raised_USD":3000000000.0,"state":null},{"name":"Frogmetrics","category_code":"web","offices":{"description":"","address1":"125 Noble St","address2":"Suite 2","zip_code":"11222","city":"Brooklyn","state_code":"NY","country_code":"USA","latitude":40.7286261,"longitude":-73.9555369},"category":"All","office":{"type":"Point","coordinates":[-73.9555369,40.7286261]},"clean_state":"success","latitude":40.7286261,"longitude":-73.9555369,"total_money_raised":"$0","total_money_raised_USD":0.0,"state":"NY"},{"name":"1Cast","category_code":"games_video","offices":{"description":"HQ","address1":"10519 NE 38th Place","address2":"Building 12","zip_code":"98033","city":"Kirkland","state_code":"WA","country_code":"USA","latitude":47.656975,"longitude":-122.205614},"category":"All","office":{"type":"Point","coordinates":[-122.205614,47.656975]},"clean_state":"success","latitude":47.656975,"longitude":-122.205614,"total_money_raised":"$0","total_money_raised_USD":0.0,"state":"WA"},{"name":"Unity 4 Humanity","category_code":"advertising","offices":{"description":"Unity 4 Humanity, Inc.","address1":"P.O. Box 700","address2":"","zip_code":"11780","city":"Saint James","state_code":"NY","country_code":"USA","latitude":40.8887993,"longitude":-73.1762626},"category":"All","office":{"type":"Point","coordinates":[-73.1762626,40.8887993]},"clean_state":"success","latitude":40.8887993,"longitude":-73.1762626,"total_money_raised":"$250k","total_money_raised_USD":250000000000.0,"state":"NY"},{"name":"Phokki","category_code":"web","offices":null,"category":"All","office":null,"clean_state":"No office","latitude":null,"longitude":null,"total_money_raised":"$45k","total_money_raised_USD":45000000000.0,"state":"unknown"},{"name":"Shattered Reality Interactive","category_code":"games_video","offices":{"description":"Main Office","address1":"490 2nd Street","address2":"Suite 100","zip_code":"94107","city":"San Francisco","state_code":"CA","country_code":"USA","latitude":37.783046,"longitude":-122.394067},"category":"All","office":{"type":"Point","coordinates":[-122.394067,37.783046]},"clean_state":"success","latitude":37.783046,"longitude":-122.394067,"total_money_raised":"$1.1M","total_money_raised_USD":1100000000.0,"state":"CA"},{"name":"FairSoftware","category_code":"web","offices":{"description":"","address1":"","address2":"","zip_code":"94041","city":"Mountain View","state_code":"CA","country_code":"USA","latitude":37.386773,"longitude":-122.075222},"category":"All","office":{"type":"Point","coordinates":[-122.075222,37.386773]},"clean_state":"success","latitude":37.386773,"longitude":-122.075222,"total_money_raised":"$100k","total_money_raised_USD":100000000000.0,"state":"CA"},{"name":"HammerKit","category_code":"web","offices":{"description":"Headquarters","address1":"Hiilikatu 3","address2":"","zip_code":"00180","city":"Helsinki","state_code":null,"country_code":"FIN","latitude":60.16441,"longitude":24.910863},"category":"All","office":{"type":"Point","coordinates":[24.910863,60.16441]},"clean_state":"success","latitude":60.16441,"longitude":24.910863,"total_money_raised":"\u20ac1.25M","total_money_raised_USD":1250000000.0,"state":null},{"name":"Klatcher","category_code":"web","offices":{"description":"New York Office","address1":"","address2":"","zip_code":"10031","city":"","state_code":"NY","country_code":"USA","latitude":40.822087,"longitude":-73.950677},"category":"All","office":{"type":"Point","coordinates":[-73.950677,40.822087]},"clean_state":"success","latitude":40.822087,"longitude":-73.950677,"total_money_raised":"$150k","total_money_raised_USD":150000000000.0,"state":"NY"},{"name":"Picateers","category_code":"web","offices":{"description":"HQ","address1":"1720 S. Amphlett Boulevard","address2":"Suite 320","zip_code":"94402","city":"San Mateo","state_code":"CA","country_code":"USA","latitude":37.5574,"longitude":-122.301914},"category":"All","office":{"type":"Point","coordinates":[-122.301914,37.5574]},"clean_state":"success","latitude":37.5574,"longitude":-122.301914,"total_money_raised":"$12.1M","total_money_raised_USD":12100000000.0,"state":"CA"},{"name":"Linkua","category_code":"games_video","offices":{"description":"Barcelona HQ","address1":"","address2":"","zip_code":"","city":"","state_code":null,"country_code":"ESP","latitude":null,"longitude":null},"category":"All","office":null,"clean_state":"Invalid lat and long","latitude":null,"longitude":null,"total_money_raised":"$0","total_money_raised_USD":0.0,"state":null},{"name":"SimpleLeap Software","category_code":"software","offices":{"description":"SimpleLeap Headquarters","address1":"48 Peachtree Ave.","address2":"","zip_code":"30305","city":"Atlanta","state_code":"GA","country_code":"USA","latitude":33.834764,"longitude":-84.378116},"category":"All","office":{"type":"Point","coordinates":[-84.378116,33.834764]},"clean_state":"success","latitude":33.834764,"longitude":-84.378116,"total_money_raised":"$0","total_money_raised_USD":0.0,"state":"GA"},{"name":"Getfugu","category_code":"software","offices":{"description":"HQ","address1":"600 Townsend","address2":"Suite 129 E","zip_code":"94103","city":"San Francisco","state_code":"CA","country_code":"USA","latitude":37.771706,"longitude":-122.402683},"category":"All","office":{"type":"Point","coordinates":[-122.402683,37.771706]},"clean_state":"success","latitude":37.771706,"longitude":-122.402683,"total_money_raised":"$800k","total_money_raised_USD":800000000000.0,"state":"CA"},{"name":"The Society","category_code":"web","offices":{"description":"Headquarters","address1":"3235 S Wadsworth Blvd","address2":"","zip_code":"80227","city":"Lakewood","state_code":"CO","country_code":"USA","latitude":39.658017,"longitude":-105.084475},"category":"All","office":{"type":"Point","coordinates":[-105.084475,39.658017]},"clean_state":"success","latitude":39.658017,"longitude":-105.084475,"total_money_raised":"$1.5M","total_money_raised_USD":1500000000.0,"state":"CO"},{"name":"Semantra","category_code":"software","offices":{"description":"Headquarters","address1":"5055 Keller Springs ROad","address2":"Suite 200","zip_code":"75001","city":"Addison","state_code":"TX","country_code":"USA","latitude":32.969251,"longitude":-96.823778},"category":"All","office":{"type":"Point","coordinates":[-96.823778,32.969251]},"clean_state":"success","latitude":32.969251,"longitude":-96.823778,"total_money_raised":"$9.1M","total_money_raised_USD":9100000000.0,"state":"TX"},{"name":"Vertica Systems","category_code":"software","offices":{"description":"HQ","address1":"8 Federal Street","address2":"","zip_code":"01821","city":"Billerica","state_code":"MA","country_code":"USA","latitude":42.543932,"longitude":-71.278698},"category":"All","office":{"type":"Point","coordinates":[-71.278698,42.543932]},"clean_state":"success","latitude":42.543932,"longitude":-71.278698,"total_money_raised":"$30.5M","total_money_raised_USD":30500000000.0,"state":"MA"},{"name":"Club Scene Network","category_code":"games_video","offices":null,"category":"All","office":null,"clean_state":"No office","latitude":null,"longitude":null,"total_money_raised":"$225k","total_money_raised_USD":225000000000.0,"state":"unknown"},{"name":"Povo","category_code":"advertising","offices":{"description":"Headquarters","address1":"1 Appleton Street","address2":"3rd Floor","zip_code":"02116","city":"Boston","state_code":"MA","country_code":"USA","latitude":42.346723,"longitude":-71.069668},"category":"All","office":{"type":"Point","coordinates":[-71.069668,42.346723]},"clean_state":"success","latitude":42.346723,"longitude":-71.069668,"total_money_raised":"$0","total_money_raised_USD":0.0,"state":"MA"},{"name":"FanPrice","category_code":"games_video","offices":{"description":"FanPrice Corporate Office","address1":"11693 San Vicente Blvd","address2":"#425","zip_code":"90049","city":"Los Angeles","state_code":"CA","country_code":"USA","latitude":38.233786,"longitude":-122.636071},"category":"All","office":{"type":"Point","coordinates":[-122.636071,38.233786]},"clean_state":"success","latitude":38.233786,"longitude":-122.636071,"total_money_raised":"$0","total_money_raised_USD":0.0,"state":"CA"},{"name":"Tailgate Technologies","category_code":"advertising","offices":{"description":"Headquarters","address1":"8A Great Newport St","address2":"Soho","zip_code":"WC2H 7JA","city":"London","state_code":null,"country_code":"GBR","latitude":51.511889,"longitude":-0.127743},"category":"All","office":{"type":"Point","coordinates":[-0.127743,51.511889]},"clean_state":"success","latitude":51.511889,"longitude":-0.127743,"total_money_raised":"$0","total_money_raised_USD":0.0,"state":null},{"name":"Tailgate Technologies","category_code":"advertising","offices":{"description":"USA Office","address1":"8335 Sunset Blvd","address2":"Suite 210","zip_code":"90069","city":"West Hollywood","state_code":"CA","country_code":"USA","latitude":34.096359,"longitude":-118.371279},"category":"All","office":{"type":"Point","coordinates":[-118.371279,34.096359]},"clean_state":"success","latitude":34.096359,"longitude":-118.371279,"total_money_raised":"$0","total_money_raised_USD":0.0,"state":"CA"},{"name":"InterStilist Professionnel","category_code":"web","offices":null,"category":"All","office":null,"clean_state":"No office","latitude":null,"longitude":null,"total_money_raised":"$0","total_money_raised_USD":0.0,"state":"unknown"},{"name":"TripShake","category_code":"web","offices":{"description":"","address1":"35 Vine Street,","address2":"","zip_code":"EC2N 3AA","city":"London","state_code":null,"country_code":"GBR","latitude":null,"longitude":null},"category":"All","office":null,"clean_state":"Invalid lat and long","latitude":null,"longitude":null,"total_money_raised":"\u20ac50k","total_money_raised_USD":50000000000.0,"state":null},{"name":"Mybandstock","category_code":"games_video","offices":{"description":"Mybandstock.com","address1":"3475 Ben Lomond Place","address2":"","zip_code":"90027","city":"Los Angeles","state_code":"CA","country_code":"USA","latitude":42.2802675,"longitude":-83.7420579},"category":"All","office":{"type":"Point","coordinates":[-83.7420579,42.2802675]},"clean_state":"success","latitude":42.2802675,"longitude":-83.7420579,"total_money_raised":"$0","total_money_raised_USD":0.0,"state":"CA"},{"name":"FanSnap","category_code":"web","offices":{"description":"Nextag HQ","address1":"2955 Campus Drive","address2":"Suite 300","zip_code":"94403","city":"San Mateo","state_code":"CA","country_code":"USA","latitude":null,"longitude":null},"category":"All","office":null,"clean_state":"Invalid lat and long","latitude":null,"longitude":null,"total_money_raised":"$15.7M","total_money_raised_USD":15700000000.0,"state":"CA"},{"name":"Karo Internet","category_code":"games_video","offices":{"description":"HQ","address1":"K\u00c3\u00b6lner str 89","address2":"","zip_code":"50859","city":"Cologne","state_code":null,"country_code":"DEU","latitude":50.947112,"longitude":6.842133},"category":"All","office":{"type":"Point","coordinates":[6.842133,50.947112]},"clean_state":"success","latitude":50.947112,"longitude":6.842133,"total_money_raised":"\u20ac850k","total_money_raised_USD":850000000000.0,"state":null},{"name":"Pumant","category_code":"software","offices":{"description":"International Office","address1":"Birmingham, UK","address2":"","zip_code":"","city":"Birmingham","state_code":null,"country_code":"GBR","latitude":52.482932,"longitude":-1.893621},"category":"All","office":{"type":"Point","coordinates":[-1.893621,52.482932]},"clean_state":"success","latitude":52.482932,"longitude":-1.893621,"total_money_raised":"$1.2M","total_money_raised_USD":1200000000.0,"state":null},{"name":"Pumant","category_code":"software","offices":{"description":"Software Factory","address1":"Buenos Aires, Argentina","address2":"","zip_code":"","city":"Buenos Aires","state_code":null,"country_code":"ARG","latitude":-34.611781,"longitude":-58.417309},"category":"All","office":{"type":"Point","coordinates":[-58.417309,-34.611781]},"clean_state":"success","latitude":-34.611781,"longitude":-58.417309,"total_money_raised":"$1.2M","total_money_raised_USD":1200000000.0,"state":null},{"name":"Newmerix","category_code":"software","offices":{"description":"HQ","address1":"1100 South McCaslin Blvd.","address2":"Suite 160","zip_code":"80027","city":"Superior","state_code":"CO","country_code":"USA","latitude":39.944003,"longitude":-105.16519},"category":"All","office":{"type":"Point","coordinates":[-105.16519,39.944003]},"clean_state":"success","latitude":39.944003,"longitude":-105.16519,"total_money_raised":"$7M","total_money_raised_USD":7000000000.0,"state":"CO"},{"name":"Zadby","category_code":"games_video","offices":{"description":"","address1":"# 11480 Commerce Park Dr","address2":"Third Floor","zip_code":"20191","city":"Reston","state_code":"VA","country_code":"USA","latitude":38.947914,"longitude":-77.342896},"category":"All","office":{"type":"Point","coordinates":[-77.342896,38.947914]},"clean_state":"success","latitude":38.947914,"longitude":-77.342896,"total_money_raised":"$0","total_money_raised_USD":0.0,"state":"VA"},{"name":"iKobo","category_code":"web","offices":{"description":"","address1":"","address2":"","zip_code":"30339","city":"Atlanta","state_code":"GA","country_code":"USA","latitude":33.878814,"longitude":-84.464518},"category":"All","office":{"type":"Point","coordinates":[-84.464518,33.878814]},"clean_state":"success","latitude":33.878814,"longitude":-84.464518,"total_money_raised":"$0","total_money_raised_USD":0.0,"state":"GA"},{"name":"GlobalCrypto","category_code":"software","offices":{"description":"HQ","address1":"75 5th Street NW","address2":"Suite 203","zip_code":"30308","city":"Atlanta","state_code":"GA","country_code":"USA","latitude":33.776834,"longitude":-84.3895875},"category":"All","office":{"type":"Point","coordinates":[-84.3895875,33.776834]},"clean_state":"success","latitude":33.776834,"longitude":-84.3895875,"total_money_raised":"$1M","total_money_raised_USD":1000000000.0,"state":"GA"},{"name":"Illumix Software","category_code":"software","offices":{"description":"UK Headquarters","address1":"Surrey Technology Centre","address2":"Occam Road","zip_code":"GU2 7YG","city":"Guildford","state_code":null,"country_code":"GBR","latitude":null,"longitude":null},"category":"All","office":null,"clean_state":"Invalid lat and long","latitude":null,"longitude":null,"total_money_raised":"$3M","total_money_raised_USD":3000000000.0,"state":null},{"name":"pickrset","category_code":"games_video","offices":{"description":"San Clemente","address1":"638 Camino De Los Mares","address2":"Suite H130-490","zip_code":"92673","city":"San Clemente","state_code":"CA","country_code":"USA","latitude":33.4590557,"longitude":-117.6513647},"category":"All","office":{"type":"Point","coordinates":[-117.6513647,33.4590557]},"clean_state":"success","latitude":33.4590557,"longitude":-117.6513647,"total_money_raised":"$100k","total_money_raised_USD":100000000000.0,"state":"CA"},{"name":"Tiberium","category_code":"software","offices":{"description":"UK Office","address1":"","address2":"","zip_code":"","city":"Milton Keynes","state_code":null,"country_code":"GBR","latitude":52.0353334,"longitude":-0.7041592},"category":"All","office":{"type":"Point","coordinates":[-0.7041592,52.0353334]},"clean_state":"success","latitude":52.0353334,"longitude":-0.7041592,"total_money_raised":"\u00a350k","total_money_raised_USD":50000000000.0,"state":null},{"name":"Behind the Burner","category_code":"web","offices":{"description":"","address1":"500 Fifth Avenue","address2":"12th Floor","zip_code":"10110","city":"New York","state_code":"NY","country_code":"USA","latitude":40.753918,"longitude":-73.981237},"category":"All","office":{"type":"Point","coordinates":[-73.981237,40.753918]},"clean_state":"success","latitude":40.753918,"longitude":-73.981237,"total_money_raised":"$500k","total_money_raised_USD":500000000000.0,"state":"NY"},{"name":"Amadesa","category_code":"software","offices":{"description":"Headquarters","address1":"1611 Simpson Street #3","address2":"","zip_code":"60201","city":"Evanston","state_code":"IL","country_code":"USA","latitude":42.055849,"longitude":-87.694664},"category":"All","office":{"type":"Point","coordinates":[-87.694664,42.055849]},"clean_state":"success","latitude":42.055849,"longitude":-87.694664,"total_money_raised":"$12.8M","total_money_raised_USD":12800000000.0,"state":"IL"},{"name":"Amadesa","category_code":"software","offices":{"description":"R&D","address1":"5 Shoham St. 6th Floor","address2":"","zip_code":"52521","city":"Ramat Gan","state_code":null,"country_code":"ISR","latitude":null,"longitude":null},"category":"All","office":null,"clean_state":"Invalid lat and long","latitude":null,"longitude":null,"total_money_raised":"$12.8M","total_money_raised_USD":12800000000.0,"state":null},{"name":"AutoVirt","category_code":"software","offices":{"description":"HQ","address1":"12 Murphy Dr.","address2":"","zip_code":"03062","city":"Nashua","state_code":"NH","country_code":"USA","latitude":42.7370219,"longitude":-71.4872976},"category":"All","office":{"type":"Point","coordinates":[-71.4872976,42.7370219]},"clean_state":"success","latitude":42.7370219,"longitude":-71.4872976,"total_money_raised":"$24.3M","total_money_raised_USD":24300000000.0,"state":"NH"},{"name":"Darkstrand","category_code":"software","offices":null,"category":"All","office":null,"clean_state":"No office","latitude":null,"longitude":null,"total_money_raised":"$12M","total_money_raised_USD":12000000000.0,"state":"unknown"},{"name":"Raffstar","category_code":"web","offices":{"description":"","address1":"10026A S Mingo Road","address2":"Suite 256","zip_code":"74133","city":"Tulsa","state_code":"OK","country_code":"USA","latitude":36.0179373,"longitude":-95.8685249},"category":"All","office":{"type":"Point","coordinates":[-95.8685249,36.0179373]},"clean_state":"success","latitude":36.0179373,"longitude":-95.8685249,"total_money_raised":"$0","total_money_raised_USD":0.0,"state":"OK"},{"name":"Bloggerce","category_code":"software","offices":{"description":"Office","address1":"20 Dan Street","address2":"","zip_code":"93509","city":"Jerusalem","state_code":null,"country_code":"ISR","latitude":null,"longitude":null},"category":"All","office":null,"clean_state":"Invalid lat and long","latitude":null,"longitude":null,"total_money_raised":"$20k","total_money_raised_USD":20000000000.0,"state":null},{"name":"Broadchoice","category_code":"software","offices":{"description":"Headquarters","address1":"1825 South Grant Street","address2":"Suite 100","zip_code":"94402","city":"San Mateo","state_code":"CA","country_code":"USA","latitude":37.553743,"longitude":-122.300246},"category":"All","office":{"type":"Point","coordinates":[-122.300246,37.553743]},"clean_state":"success","latitude":37.553743,"longitude":-122.300246,"total_money_raised":"$2.7M","total_money_raised_USD":2700000000.0,"state":"CA"},{"name":"Novafora","category_code":"software","offices":{"description":"HQ","address1":"2460 N 1st Street","address2":"Suite 200","zip_code":"","city":"San Jose","state_code":"CA","country_code":"USA","latitude":null,"longitude":null},"category":"All","office":null,"clean_state":"Invalid lat and long","latitude":null,"longitude":null,"total_money_raised":"$12M","total_money_raised_USD":12000000000.0,"state":"CA"},{"name":"artaculous","category_code":"games_video","offices":{"description":"Registered Office","address1":"76 High Street","address2":"Newport Pagnell","zip_code":"MK16 8AQ","city":"Milton Keynes","state_code":null,"country_code":"GBR","latitude":52.13244,"longitude":-0.779005},"category":"All","office":{"type":"Point","coordinates":[-0.779005,52.13244]},"clean_state":"success","latitude":52.13244,"longitude":-0.779005,"total_money_raised":"$10k","total_money_raised_USD":10000000000.0,"state":null},{"name":"Rudder","category_code":"web","offices":{"description":"Rudder","address1":"3939 Essex Lane","address2":"Suite 190","zip_code":"77027","city":"Houston","state_code":"TX","country_code":"USA","latitude":29.739322,"longitude":-95.444747},"category":"All","office":{"type":"Point","coordinates":[-95.444747,29.739322]},"clean_state":"success","latitude":29.739322,"longitude":-95.444747,"total_money_raised":"$2M","total_money_raised_USD":2000000000.0,"state":"TX"},{"name":"i2we","category_code":"web","offices":{"description":"","address1":"2380 Ellsworth St","address2":"","zip_code":"","city":"Berkeley","state_code":"CA","country_code":"USA","latitude":37.8665325,"longitude":-122.2634131},"category":"All","office":{"type":"Point","coordinates":[-122.2634131,37.8665325]},"clean_state":"success","latitude":37.8665325,"longitude":-122.2634131,"total_money_raised":"$750k","total_money_raised_USD":750000000000.0,"state":"CA"},{"name":"SeeSaw Networks","category_code":"advertising","offices":{"description":"","address1":"100 Bush St.","address2":"Suite #950","zip_code":"94104","city":"San Francisco","state_code":"CA","country_code":"USA","latitude":37.791564,"longitude":-122.399981},"category":"All","office":{"type":"Point","coordinates":[-122.399981,37.791564]},"clean_state":"success","latitude":37.791564,"longitude":-122.399981,"total_money_raised":"$21.1M","total_money_raised_USD":21100000000.0,"state":"CA"},{"name":"IMedExchange","category_code":"web","offices":{"description":"Headquarters","address1":"600 Stewart St","address2":"Suite 1400","zip_code":"98101","city":"Seattle","state_code":"WA","country_code":"USA","latitude":47.6136485,"longitude":-122.3371174},"category":"All","office":{"type":"Point","coordinates":[-122.3371174,47.6136485]},"clean_state":"success","latitude":47.6136485,"longitude":-122.3371174,"total_money_raised":"$2.62M","total_money_raised_USD":2620000000.0,"state":"WA"},{"name":"Robotgalaxy","category_code":"games_video","offices":{"description":"","address1":"41 Union Square West,","address2":"Suite 808","zip_code":"10003","city":"New York","state_code":"NY","country_code":"USA","latitude":40.737216,"longitude":-73.990947},"category":"All","office":{"type":"Point","coordinates":[-73.990947,40.737216]},"clean_state":"success","latitude":40.737216,"longitude":-73.990947,"total_money_raised":"$12M","total_money_raised_USD":12000000000.0,"state":"NY"},{"name":"Neopolitan Networks","category_code":"web","offices":{"description":"","address1":"260 Sheridan Ave.","address2":"","zip_code":"94306","city":"Palo Alto","state_code":"CA","country_code":"USA","latitude":37.426316,"longitude":-122.141082},"category":"All","office":{"type":"Point","coordinates":[-122.141082,37.426316]},"clean_state":"success","latitude":37.426316,"longitude":-122.141082,"total_money_raised":"$3.17M","total_money_raised_USD":3170000000.0,"state":"CA"},{"name":"VoloMedia","category_code":"advertising","offices":{"description":"Headquarters","address1":"800 W. California Ave.","address2":"Suite 110","zip_code":"94086","city":"Sunnyvale","state_code":"CA","country_code":"USA","latitude":37.382376,"longitude":-122.037607},"category":"All","office":{"type":"Point","coordinates":[-122.037607,37.382376]},"clean_state":"success","latitude":37.382376,"longitude":-122.037607,"total_money_raised":"$12M","total_money_raised_USD":12000000000.0,"state":"CA"},{"name":"Fuego Nation","category_code":"web","offices":{"description":"","address1":"","address2":"","zip_code":"","city":"San Francisco","state_code":"CA","country_code":"USA","latitude":37.775196,"longitude":-122.419204},"category":"All","office":{"type":"Point","coordinates":[-122.419204,37.775196]},"clean_state":"success","latitude":37.775196,"longitude":-122.419204,"total_money_raised":"$1.5M","total_money_raised_USD":1500000000.0,"state":"CA"},{"name":"Applied Identity","category_code":"advertising","offices":{"description":"","address1":"456 Montgomery","address2":"Suite 400","zip_code":"94104","city":"San Francisco","state_code":"CA","country_code":"USA","latitude":null,"longitude":null},"category":"All","office":null,"clean_state":"Invalid lat and long","latitude":null,"longitude":null,"total_money_raised":"$33M","total_money_raised_USD":33000000000.0,"state":"CA"},{"name":"Kickfire","category_code":"software","offices":{"description":"","address1":"2055 Laurelwood Road","address2":"Suite 150","zip_code":"95054","city":"Santa Clara","state_code":"CA","country_code":"USA","latitude":37.381876,"longitude":-121.95993},"category":"All","office":{"type":"Point","coordinates":[-121.95993,37.381876]},"clean_state":"success","latitude":37.381876,"longitude":-121.95993,"total_money_raised":"$20M","total_money_raised_USD":20000000000.0,"state":"CA"},{"name":"AdYouNet","category_code":"advertising","offices":{"description":"","address1":"1032 Elwell Court","address2":"Suite 230","zip_code":"94303","city":"Palo Alto","state_code":"CA","country_code":"USA","latitude":37.431941,"longitude":-122.103076},"category":"All","office":{"type":"Point","coordinates":[-122.103076,37.431941]},"clean_state":"success","latitude":37.431941,"longitude":-122.103076,"total_money_raised":"$1.4M","total_money_raised_USD":1400000000.0,"state":"CA"},{"name":"Digital Performance","category_code":"advertising","offices":{"description":"1400 Quail Street","address1":"Suite 280","address2":"","zip_code":"92660","city":"Newport Beach","state_code":"CA","country_code":"USA","latitude":33.63776,"longitude":-117.855989},"category":"All","office":{"type":"Point","coordinates":[-117.855989,33.63776]},"clean_state":"success","latitude":33.63776,"longitude":-117.855989,"total_money_raised":"$4.48M","total_money_raised_USD":4480000000.0,"state":"CA"},{"name":"Crowd Rent","category_code":"web","offices":{"description":"","address1":"","address2":"","zip_code":"","city":"","state_code":null,"country_code":"USA","latitude":null,"longitude":null},"category":"All","office":null,"clean_state":"Invalid lat and long","latitude":null,"longitude":null,"total_money_raised":"$0","total_money_raised_USD":0.0,"state":null},{"name":"IonLogix Systems","category_code":"software","offices":{"description":"US Office","address1":"4001 Greenleaf Drive","address2":"","zip_code":"76710","city":"Waco","state_code":"TX","country_code":"USA","latitude":31.5682893,"longitude":-97.1973664},"category":"All","office":{"type":"Point","coordinates":[-97.1973664,31.5682893]},"clean_state":"success","latitude":31.5682893,"longitude":-97.1973664,"total_money_raised":"$30k","total_money_raised_USD":30000000000.0,"state":"TX"},{"name":"IonLogix Systems","category_code":"software","offices":{"description":"EMEA Office","address1":"12 Hatchiya St","address2":"Suite A","zip_code":"45289","city":"Hod Hasharon","state_code":null,"country_code":"ISR","latitude":null,"longitude":null},"category":"All","office":null,"clean_state":"Invalid lat and long","latitude":null,"longitude":null,"total_money_raised":"$30k","total_money_raised_USD":30000000000.0,"state":null},{"name":"4Blox","category_code":"software","offices":{"description":"","address1":"2880 Zanker Road","address2":"Suite #203","zip_code":"95134","city":"San Jose","state_code":"CA","country_code":"USA","latitude":37.396586,"longitude":-121.928619},"category":"All","office":{"type":"Point","coordinates":[-121.928619,37.396586]},"clean_state":"success","latitude":37.396586,"longitude":-121.928619,"total_money_raised":"$0","total_money_raised_USD":0.0,"state":"CA"},{"name":"HeySpace","category_code":"web","offices":{"description":"","address1":"9F, Tower A, Guangzhou Information Port","address2":"No16 KeYun Road","zip_code":"","city":"Guangzhou","state_code":null,"country_code":"CHN","latitude":null,"longitude":null},"category":"All","office":null,"clean_state":"Invalid lat and long","latitude":null,"longitude":null,"total_money_raised":"$20M","total_money_raised_USD":20000000000.0,"state":null},{"name":"Speedshape","category_code":"advertising","offices":{"description":"","address1":"30300 Telegraph","address2":"Suite 300","zip_code":"48025","city":"Bingham Farms","state_code":"MI","country_code":"USA","latitude":42.548008,"longitude":-83.214753},"category":"All","office":{"type":"Point","coordinates":[-83.214753,42.548008]},"clean_state":"success","latitude":42.548008,"longitude":-83.214753,"total_money_raised":"$5M","total_money_raised_USD":5000000000.0,"state":"MI"},{"name":"Appscio","category_code":"software","offices":{"description":"HQ","address1":"80 Airport Boulevard,","address2":"Suite 206A","zip_code":"95019-2901","city":"Freedom","state_code":"CA","country_code":"USA","latitude":36.9397206,"longitude":-121.7768449},"category":"All","office":{"type":"Point","coordinates":[-121.7768449,36.9397206]},"clean_state":"success","latitude":36.9397206,"longitude":-121.7768449,"total_money_raised":"$7M","total_money_raised_USD":7000000000.0,"state":"CA"},{"name":"Aurora Feint","category_code":"games_video","offices":{"description":"HQ","address1":"330 Primrose Road","address2":"Suite 515","zip_code":"94010","city":"Burlingame","state_code":"CA","country_code":"USA","latitude":null,"longitude":null},"category":"All","office":null,"clean_state":"Invalid lat and long","latitude":null,"longitude":null,"total_money_raised":"$7.66M","total_money_raised_USD":7660000000.0,"state":"CA"},{"name":"Jumper Networks","category_code":"software","offices":{"description":"Jumper","address1":"Box 606","address2":"White Horse Road","zip_code":"02381","city":"White Horse Beach","state_code":"MA","country_code":"USA","latitude":41.8798535,"longitude":-70.600416},"category":"All","office":{"type":"Point","coordinates":[-70.600416,41.8798535]},"clean_state":"success","latitude":41.8798535,"longitude":-70.600416,"total_money_raised":"$0","total_money_raised_USD":0.0,"state":"MA"},{"name":"OpVista","category_code":"software","offices":{"description":"OpVista Inc","address1":"870 North McCarthy Blvd.","address2":"","zip_code":"95035","city":"Milpitas","state_code":"CA","country_code":"USA","latitude":37.4384108,"longitude":-121.9240273},"category":"All","office":{"type":"Point","coordinates":[-121.9240273,37.4384108]},"clean_state":"success","latitude":37.4384108,"longitude":-121.9240273,"total_money_raised":"$43M","total_money_raised_USD":43000000000.0,"state":"CA"},{"name":"Etology","category_code":"web","offices":{"description":"Headquarters","address1":"1065 East Hillsdale Blvd.","address2":"Suite 301","zip_code":"94404","city":"Foster City","state_code":"CA","country_code":"USA","latitude":37.561111,"longitude":-122.270487},"category":"All","office":{"type":"Point","coordinates":[-122.270487,37.561111]},"clean_state":"success","latitude":37.561111,"longitude":-122.270487,"total_money_raised":"$4M","total_money_raised_USD":4000000000.0,"state":"CA"},{"name":"Gecko Audio","category_code":"software","offices":{"description":"","address1":"","address2":"","zip_code":"","city":"Palo Alto","state_code":"CA","country_code":"USA","latitude":37.437328,"longitude":-122.159928},"category":"All","office":{"type":"Point","coordinates":[-122.159928,37.437328]},"clean_state":"success","latitude":37.437328,"longitude":-122.159928,"total_money_raised":"$3M","total_money_raised_USD":3000000000.0,"state":"CA"},{"name":"Bandbox","category_code":"games_video","offices":{"description":"HQ","address1":"","address2":"","zip_code":"37067","city":"","state_code":"TN","country_code":"USA","latitude":null,"longitude":null},"category":"All","office":null,"clean_state":"Invalid lat and long","latitude":null,"longitude":null,"total_money_raised":"$0","total_money_raised_USD":0.0,"state":"TN"},{"name":"Spotigo","category_code":"software","offices":{"description":"","address1":"M\u00c3\u00bchlenstr. 7","address2":"","zip_code":"40213","city":"D\u00c3\u00bcsseldorf","state_code":null,"country_code":"DEU","latitude":51.2272367,"longitude":6.7726553},"category":"All","office":{"type":"Point","coordinates":[6.7726553,51.2272367]},"clean_state":"success","latitude":51.2272367,"longitude":6.7726553,"total_money_raised":"$638k","total_money_raised_USD":638000000000.0,"state":null},{"name":"Filmmortal","category_code":"advertising","offices":{"description":"","address1":"","address2":"","zip_code":"94040","city":"Mountain View","state_code":"CA","country_code":"USA","latitude":37.3785351,"longitude":-122.086585},"category":"All","office":{"type":"Point","coordinates":[-122.086585,37.3785351]},"clean_state":"success","latitude":37.3785351,"longitude":-122.086585,"total_money_raised":"$155k","total_money_raised_USD":155000000000.0,"state":"CA"},{"name":"Digital Marketing Solutions","category_code":"advertising","offices":{"description":"Singapore (Headquarters)","address1":"16 Raffles Quay#33-08","address2":"Hong Leong Building","zip_code":"048581","city":"Singapore","state_code":null,"country_code":"SGP","latitude":1.2815533,"longitude":103.8509159},"category":"All","office":{"type":"Point","coordinates":[103.8509159,1.2815533]},"clean_state":"success","latitude":1.2815533,"longitude":103.8509159,"total_money_raised":"$0","total_money_raised_USD":0.0,"state":null},{"name":"Digital Marketing Solutions","category_code":"advertising","offices":{"description":"Indonesia","address1":"Menara Prima, 27th Floor, Suite F, Jl Lingkar Blok 6.2","address2":"Mega Kuningan","zip_code":"12950","city":"Jakarta","state_code":null,"country_code":"IDN","latitude":null,"longitude":null},"category":"All","office":null,"clean_state":"Invalid lat and long","latitude":null,"longitude":null,"total_money_raised":"$0","total_money_raised_USD":0.0,"state":null},{"name":"Punch Entertainment","category_code":"software","offices":{"description":"Headquarters","address1":"944 Industrial Avenue","address2":"","zip_code":"94303","city":"Palo Alto","state_code":"CA","country_code":"USA","latitude":37.4233698,"longitude":-122.0986859},"category":"All","office":{"type":"Point","coordinates":[-122.0986859,37.4233698]},"clean_state":"success","latitude":37.4233698,"longitude":-122.0986859,"total_money_raised":"$1.2M","total_money_raised_USD":1200000000.0,"state":"CA"},{"name":"htmlPlayground","category_code":"web","offices":null,"category":"All","office":null,"clean_state":"No office","latitude":null,"longitude":null,"total_money_raised":"$0","total_money_raised_USD":0.0,"state":"unknown"},{"name":"M3X Media","category_code":"games_video","offices":{"description":"","address1":"","address2":"","zip_code":"","city":"West Palm Beach","state_code":"FL","country_code":"USA","latitude":26.72868,"longitude":-80.099946},"category":"All","office":{"type":"Point","coordinates":[-80.099946,26.72868]},"clean_state":"success","latitude":26.72868,"longitude":-80.099946,"total_money_raised":"$10.5M","total_money_raised_USD":10500000000.0,"state":"FL"},{"name":"Gnomz Software","category_code":"software","offices":{"description":"Vancouver","address1":"","address2":"","zip_code":"","city":"Vancouver","state_code":null,"country_code":"CAN","latitude":49.263588,"longitude":-123.138565},"category":"All","office":{"type":"Point","coordinates":[-123.138565,49.263588]},"clean_state":"success","latitude":49.263588,"longitude":-123.138565,"total_money_raised":"$0","total_money_raised_USD":0.0,"state":null},{"name":"Fabchannel","category_code":"games_video","offices":null,"category":"All","office":null,"clean_state":"No office","latitude":null,"longitude":null,"total_money_raised":"$0","total_money_raised_USD":0.0,"state":"unknown"},{"name":"Foldees","category_code":"web","offices":{"description":"HQ","address1":"11, Jalan SS22A\/6","address2":"Damansara Jaya","zip_code":"47400","city":"Petaling Jaya","state_code":null,"country_code":"MYS","latitude":null,"longitude":null},"category":"All","office":null,"clean_state":"Invalid lat and long","latitude":null,"longitude":null,"total_money_raised":"$40k","total_money_raised_USD":40000000000.0,"state":null},{"name":"Dmailer","category_code":"software","offices":{"description":"HQ","address1":"37\/41, rue Guibal Hall Sud","address2":"2nd Floor","zip_code":"13003","city":"Marseille","state_code":null,"country_code":"FRA","latitude":null,"longitude":null},"category":"All","office":null,"clean_state":"Invalid lat and long","latitude":null,"longitude":null,"total_money_raised":"$3.61M","total_money_raised_USD":3610000000.0,"state":null},{"name":"Ubequity","category_code":"web","offices":{"description":"Headquarters","address1":"7315 Wisconsin Avenue","address2":"Suite 1250 West","zip_code":"20814","city":"Bethesda","state_code":"MD","country_code":"USA","latitude":39.0910713,"longitude":-77.1876232},"category":"All","office":{"type":"Point","coordinates":[-77.1876232,39.0910713]},"clean_state":"success","latitude":39.0910713,"longitude":-77.1876232,"total_money_raised":"$0","total_money_raised_USD":0.0,"state":"MD"},{"name":"Rovrr","category_code":"web","offices":{"description":"Primary Office","address1":"310 4th Avenue South","address2":"STE 650","zip_code":"55415","city":"Minneapolis","state_code":"MN","country_code":"USA","latitude":44.974134,"longitude":-93.266603},"category":"All","office":{"type":"Point","coordinates":[-93.266603,44.974134]},"clean_state":"success","latitude":44.974134,"longitude":-93.266603,"total_money_raised":"$0","total_money_raised_USD":0.0,"state":"MN"},{"name":"TrewCap","category_code":"games_video","offices":null,"category":"All","office":null,"clean_state":"No office","latitude":null,"longitude":null,"total_money_raised":"$18k","total_money_raised_USD":18000000000.0,"state":"unknown"},{"name":"Cruxy","category_code":"advertising","offices":null,"category":"All","office":null,"clean_state":"No office","latitude":null,"longitude":null,"total_money_raised":"$0","total_money_raised_USD":0.0,"state":"unknown"},{"name":"Factery","category_code":"web","offices":{"description":"","address1":"","address2":"","zip_code":"94025","city":"Menlo Park","state_code":"CA","country_code":"USA","latitude":37.4484914,"longitude":-122.1802812},"category":"All","office":{"type":"Point","coordinates":[-122.1802812,37.4484914]},"clean_state":"success","latitude":37.4484914,"longitude":-122.1802812,"total_money_raised":"$1.2M","total_money_raised_USD":1200000000.0,"state":"CA"},{"name":"FledgeWing","category_code":"web","offices":{"description":"New York Office","address1":"","address2":"","zip_code":"10003","city":"New York","state_code":"NY","country_code":"USA","latitude":40.7322535,"longitude":-73.9874105},"category":"All","office":{"type":"Point","coordinates":[-73.9874105,40.7322535]},"clean_state":"success","latitude":40.7322535,"longitude":-73.9874105,"total_money_raised":"$0","total_money_raised_USD":0.0,"state":"NY"},{"name":"kinkon","category_code":"web","offices":{"description":"Headquarter","address1":"Eisenbahnstra\u00c3\u0178e 51","address2":"","zip_code":"67655","city":"Kaiserslautern","state_code":null,"country_code":"DEU","latitude":49.439304,"longitude":7.771808},"category":"All","office":{"type":"Point","coordinates":[7.771808,49.439304]},"clean_state":"success","latitude":49.439304,"longitude":7.771808,"total_money_raised":"\u20ac750k","total_money_raised_USD":750000000000.0,"state":null},{"name":"LETSGROOP","category_code":"web","offices":{"description":"LETSGROOP Clearing","address1":"","address2":"","zip_code":"","city":"Brussels","state_code":null,"country_code":"BEL","latitude":50.837051,"longitude":4.367612},"category":"All","office":{"type":"Point","coordinates":[4.367612,50.837051]},"clean_state":"success","latitude":50.837051,"longitude":4.367612,"total_money_raised":"$100k","total_money_raised_USD":100000000000.0,"state":null},{"name":"LETSGROOP","category_code":"web","offices":{"description":"LETSGROOP Technical","address1":"","address2":"","zip_code":"","city":"Hong Kong","state_code":null,"country_code":"HKG","latitude":null,"longitude":null},"category":"All","office":null,"clean_state":"Invalid lat and long","latitude":null,"longitude":null,"total_money_raised":"$100k","total_money_raised_USD":100000000000.0,"state":null},{"name":"LETSGROOP","category_code":"web","offices":{"description":"LETSGROOP Operations","address1":"","address2":"","zip_code":"","city":"Cape Town","state_code":null,"country_code":"ZAF","latitude":-33.922461,"longitude":18.4166192},"category":"All","office":{"type":"Point","coordinates":[18.4166192,-33.922461]},"clean_state":"success","latitude":-33.922461,"longitude":18.4166192,"total_money_raised":"$100k","total_money_raised_USD":100000000000.0,"state":null},{"name":"Bidoo","category_code":"web","offices":{"description":"Bidoo Headquarter","address1":"Carrer Sant Ferra S\/N","address2":"Zona herm\u00c3\u00a9tica","zip_code":"08805","city":"Sabadell","state_code":null,"country_code":"ESP","latitude":41.5368215,"longitude":2.1029229},"category":"All","office":{"type":"Point","coordinates":[2.1029229,41.5368215]},"clean_state":"success","latitude":41.5368215,"longitude":2.1029229,"total_money_raised":"$0","total_money_raised_USD":0.0,"state":null},{"name":"CinemaKi","category_code":"games_video","offices":{"description":"Buenos Aires Office","address1":"","address2":"","zip_code":"","city":"","state_code":null,"country_code":"ARG","latitude":null,"longitude":null},"category":"All","office":null,"clean_state":"Invalid lat and long","latitude":null,"longitude":null,"total_money_raised":"$0","total_money_raised_USD":0.0,"state":null},{"name":"FanFeedr","category_code":"web","offices":{"description":"HQ","address1":"22 W 19th.","address2":"9th Floor c\/o Proclivity Systems","zip_code":"10011","city":"NEW YORK","state_code":"NY","country_code":"USA","latitude":40.7395876,"longitude":-73.9928423},"category":"All","office":{"type":"Point","coordinates":[-73.9928423,40.7395876]},"clean_state":"success","latitude":40.7395876,"longitude":-73.9928423,"total_money_raised":"$0","total_money_raised_USD":0.0,"state":"NY"},{"name":"Elanti Systems","category_code":"software","offices":{"description":"Worldwide Headquarters","address1":"300 Atrium Drive","address2":"4th Floor","zip_code":"08873","city":"Somerset","state_code":"NJ","country_code":"USA","latitude":40.535316,"longitude":-74.521435},"category":"All","office":{"type":"Point","coordinates":[-74.521435,40.535316]},"clean_state":"success","latitude":40.535316,"longitude":-74.521435,"total_money_raised":"$5.5M","total_money_raised_USD":5500000000.0,"state":"NJ"},{"name":"Pigmata Media","category_code":"software","offices":{"description":"Pigmata HQ","address1":"1177 Chino Roces Ave. Suite 4A","address2":"","zip_code":"1203","city":"Makati","state_code":null,"country_code":"PHL","latitude":14.5359294,"longitude":121.0211311},"category":"All","office":{"type":"Point","coordinates":[121.0211311,14.5359294]},"clean_state":"success","latitude":14.5359294,"longitude":121.0211311,"total_money_raised":"$5k","total_money_raised_USD":5000000000.0,"state":null},{"name":"Libox","category_code":"web","offices":{"description":"","address1":"","address2":"","zip_code":"","city":"Tel Aviv","state_code":null,"country_code":"ISR","latitude":null,"longitude":null},"category":"All","office":null,"clean_state":"Invalid lat and long","latitude":null,"longitude":null,"total_money_raised":"$2M","total_money_raised_USD":2000000000.0,"state":null},{"name":"ClassifEye","category_code":"software","offices":{"description":"","address1":"Hamarpe 8 st. Har Hotzvim","address2":"","zip_code":"97774","city":"Jerusalem","state_code":null,"country_code":"ISR","latitude":null,"longitude":null},"category":"All","office":null,"clean_state":"Invalid lat and long","latitude":null,"longitude":null,"total_money_raised":"$1.53M","total_money_raised_USD":1530000000.0,"state":null},{"name":"Vocab","category_code":"software","offices":{"description":"","address1":"Finlandsgatan 62, 2 tr, Kista","address2":"","zip_code":"16474","city":"Stockholm","state_code":null,"country_code":"SWE","latitude":59.4170827,"longitude":17.9196724},"category":"All","office":{"type":"Point","coordinates":[17.9196724,59.4170827]},"clean_state":"success","latitude":59.4170827,"longitude":17.9196724,"total_money_raised":"\u20ac215k","total_money_raised_USD":215000000000.0,"state":null},{"name":"BeeTV","category_code":"software","offices":{"description":"","address1":"","address2":"","zip_code":"","city":"Milan","state_code":null,"country_code":"ITA","latitude":45.4636889,"longitude":9.1881408},"category":"All","office":{"type":"Point","coordinates":[9.1881408,45.4636889]},"clean_state":"success","latitude":45.4636889,"longitude":9.1881408,"total_money_raised":"$9.5M","total_money_raised_USD":9500000000.0,"state":null},{"name":"GameGround","category_code":"games_video","offices":{"description":"HQ","address1":"","address2":"","zip_code":"","city":"New York","state_code":"NY","country_code":"USA","latitude":40.756054,"longitude":-73.986951},"category":"All","office":{"type":"Point","coordinates":[-73.986951,40.756054]},"clean_state":"success","latitude":40.756054,"longitude":-73.986951,"total_money_raised":"$11.4M","total_money_raised_USD":11400000000.0,"state":"NY"},{"name":"FuckedCompany","category_code":"web","offices":null,"category":"All","office":null,"clean_state":"No office","latitude":null,"longitude":null,"total_money_raised":"$0","total_money_raised_USD":0.0,"state":"unknown"},{"name":"Global Data Solutions","category_code":"software","offices":{"description":"","address1":"Room 1801, Building B Jianwai SOHO","address2":"39 East 3rd Ring Central Road","zip_code":"100022","city":"Chaoyang District Beijing","state_code":null,"country_code":"CHN","latitude":null,"longitude":null},"category":"All","office":null,"clean_state":"Invalid lat and long","latitude":null,"longitude":null,"total_money_raised":"$75M","total_money_raised_USD":75000000000.0,"state":null},{"name":"Kurani Interactive","category_code":"software","offices":{"description":"","address1":"25 Bridge Ave.","address2":"","zip_code":"07701","city":"Red Bank","state_code":"NJ","country_code":"USA","latitude":null,"longitude":null},"category":"All","office":null,"clean_state":"Invalid lat and long","latitude":null,"longitude":null,"total_money_raised":"$275k","total_money_raised_USD":275000000000.0,"state":"NJ"},{"name":"MindFuse","category_code":"games_video","offices":null,"category":"All","office":null,"clean_state":"No office","latitude":null,"longitude":null,"total_money_raised":"$1M","total_money_raised_USD":1000000000.0,"state":"unknown"},{"name":"Tagito","category_code":"web","offices":{"description":"Headquarters","address1":"1 Stockbridge","address2":"","zip_code":"92656","city":"Aliso Viejo","state_code":"CA","country_code":"USA","latitude":33.564557,"longitude":-117.735509},"category":"All","office":{"type":"Point","coordinates":[-117.735509,33.564557]},"clean_state":"success","latitude":33.564557,"longitude":-117.735509,"total_money_raised":"$320k","total_money_raised_USD":320000000000.0,"state":"CA"}]