[{"name":"WebFX","address":"600 THIRD AVENUE, 2ND FLOORNEW YORK CITY, NEW YORK 10016","office":{"type":"Point","coordinates":[-73.97629,40.74824]},"latitude":40.74824,"longitude":-73.97629,"category_code":"design"},{"name":"Vivial","address":"3100 RESEARCH BOULEVARD, 250DAYTON, OHIO 45420","office":{"type":"Point","coordinates":[-84.11117,39.71532]},"latitude":39.71532,"longitude":-84.11117,"category_code":"design"},{"name":"Avail Consultants","address":"203 WEST MILLBROOK ROAD STE 202RALEIGH, NORTH CAROLINA 27609","office":{"type":"Point","coordinates":[-78.63957,35.85564]},"latitude":35.85564,"longitude":-78.63957,"category_code":"design"},{"name":"M16 Marketing","address":"55 IVAN ALLEN JR BLVD NW SUITE 310ATLANTA, GEORGIA 30308","office":{"type":"Point","coordinates":[-84.38995,33.76507]},"latitude":33.76507,"longitude":-84.38995,"category_code":"design"},{"name":"Disruptive Advertising","address":"384 S 400 W, SUITE 200LINDON, UTAH 84042","office":null,"latitude":null,"longitude":null,"category_code":"design"},{"name":"Fair Marketing Inc","address":"26310 OAK RIDGE DRIVE, GS4SPRING, TEXAS 77380","office":{"type":"Point","coordinates":[-95.44871,30.1439]},"latitude":30.1439,"longitude":-95.44871,"category_code":"design"},{"name":"Kobe Digital","address":" 7083 HOLLYWOOD BLVDLOS ANGELES, CALIFORNIA 90028","office":{"type":"Point","coordinates":[-118.34439,34.10173]},"latitude":34.10173,"longitude":-118.34439,"category_code":"design"},{"name":"Legnd","address":"10777 WESTHEIMER RD, SUITE 1100HOUSTON, TEXAS 77042","office":{"type":"Point","coordinates":[-95.56645,29.73675]},"latitude":29.73675,"longitude":-95.56645,"category_code":"design"},{"name":"Coalition Technologies","address":"3750 S ROBERTSON BLVD, SUITE 200LOS ANGELES, CALIFORNIA 90232","office":{"type":"Point","coordinates":[120.5833,15.15]},"latitude":15.15,"longitude":120.5833,"category_code":"design"},{"name":"Thrive Internet Marketing Agency","address":"4600 PARK SPRINGS BLVD, SUITE 100ARLINGTON, TEXAS 76017","office":null,"latitude":null,"longitude":null,"category_code":"design"},{"name":"The Media Captain","address":"294 E. LONG STREET, SUITE 300COLUMBUS, OHIO 43215","office":{"type":"Point","coordinates":[-82.99329,39.96601]},"latitude":39.96601,"longitude":-82.99329,"category_code":"design"},{"name":"Regex SEO","address":"4801 WOODWAY DR, #275EHOUSTON, TEXAS 77056","office":null,"latitude":null,"longitude":null,"category_code":"design"},{"name":"Ignite Visibility","address":"3770 TANSY ST. , SUITE 100 SAN DIEGO, CALIFORNIA 92122","office":{"type":"Point","coordinates":[-117.21954,32.89625]},"latitude":32.89625,"longitude":-117.21954,"category_code":"design"},{"name":"NuStream Marketing","address":"1700 MARKET ST. , SUITE #1005PHILADELPHIA, PENNSYLVANIA 19103","office":{"type":"Point","coordinates":[0.0,0.0]},"latitude":0.0,"longitude":0.0,"category_code":"design"},{"name":"Lounge Lizard","address":"41 EAST 11TH STREETNEW YORK, NEW YORK 10003","office":{"type":"Point","coordinates":[-73.99332,40.7333]},"latitude":40.7333,"longitude":-73.99332,"category_code":"design"},{"name":"KitelyTech ","address":"1165 N. CLARK ST., 7TH FLOORCHICAGO , ILLINOIS 60610","office":{"type":"Point","coordinates":[-87.63103,41.90363]},"latitude":41.90363,"longitude":-87.63103,"category_code":"design"},{"name":"Ignite Media Group","address":"1460 WALTON BLVD, SUITE 220ROCHESTER HILLS, MICHIGAN 48309","office":{"type":"Point","coordinates":[-1.47959,53.22246]},"latitude":53.22246,"longitude":-1.47959,"category_code":"design"},{"name":"V Digital Services","address":"1201 EAST JEFFERSON STREET, SUITE 201PHOENIX, ARIZONA 85034","office":{"type":"Point","coordinates":[-112.05546,33.44668]},"latitude":33.44668,"longitude":-112.05546,"category_code":"design"},{"name":"71Three","address":"12808 WEST AIRPOT BLVD, SUITE 310SUGAR LAND, TEXAS 77478","office":{"type":"Point","coordinates":[-97.93243,26.29804]},"latitude":26.29804,"longitude":-97.93243,"category_code":"design"},{"name":"Neon Ambition","address":"701 BRAZOS STREET, SUITE 1616AUSTIN, TEXAS 78701","office":{"type":"Point","coordinates":[-97.7404,30.269]},"latitude":30.269,"longitude":-97.7404,"category_code":"design"},{"name":"Knowmad Digital Marketing","address":"933 LOUISE AVENUE, SUITE 112CHARLOTTE, NORTH CAROLINA 28204","office":{"type":"Point","coordinates":[-80.82,35.22414]},"latitude":35.22414,"longitude":-80.82,"category_code":"design"},{"name":"KickStart Dental Marketing","address":"1001 BANNOCK STREET, SUITE 504DENVER, COLORADO 80204","office":null,"latitude":null,"longitude":null,"category_code":"design"},{"name":"Black Bear Design","address":"980 HAMMOND DR, SUITE 1275ATLANTA, GEORGIA 30328","office":{"type":"Point","coordinates":[-84.35608,33.92013]},"latitude":33.92013,"longitude":-84.35608,"category_code":"design"},{"name":"GoingClear Interactive","address":"175 WILLIAM F MCCLELLAN HWY SUITE #1BOSTON, MASSACHUSETTS 02128","office":null,"latitude":null,"longitude":null,"category_code":"design"},{"name":"SPINX Digital","address":"911 W WASHINGTON BLVDLOS ANGELES, CALIFORNIA 90015","office":{"type":"Point","coordinates":[120.5833,15.15]},"latitude":15.15,"longitude":120.5833,"category_code":"design"}]